lake_id,station_id,country,subset,lake_name,lat_wgs84,lon_wgs84,altitude_m,area_ha,depth_mean_m,depth_max_m,cent_lat_wgs84,cent_lon_wgs84
1,1_1,SE,,Aapuajärvi,66.85586086290844,23.50140857019029,183.8,33.36,,,66.85302805172347,23.504168468286668
2,2_1,SE,,Äcklingen,63.735622119100995,13.01327106897672,400.9,780.83,9.7,51.0,63.75033966153981,12.940130070484743
3,3_1,SE,,Aisjaure,66.05579139715155,17.5401405466885,420.9,24714.97,,,65.98059598883587,17.724906560756857
4,4_1,SE,,Ajaure,65.51011162334447,15.62401490976421,439.0,1561.67,8.9,18.5,65.54447918661404,15.560619771201397
5,5_1,SE,,Åkersjön,63.69644109371924,14.140943080608958,472.9,1188.52,,,63.73229460869139,14.101573231019056
6,6_1,SE,,Akkajaure Suorvajauredelen,67.51683068713908,18.175470086711105,446.4,25830.46,,92.0,67.66406199308139,17.57992767966419
7,7_1,SE,,Allgunnen,56.97983498444792,16.038594852103394,85.1,1310.18,3.5,15.6,57.00974599860387,16.016624559263708
8,8_1,SE,,Allgunnen,57.242073057245,14.585353854278793,205.6,1357.43,7.7,30.4,57.21533545925957,14.611060112770803
9,9_1,SE,,Almesåkrasjön,57.54128334231841,14.603252808506657,306.4,66.72,4.0,8.0,57.55348515676325,14.597347407346549
10,10_1,SE,,Ålsjön,57.64422004983579,16.565952487857277,12.3,291.05,,,57.65509186903282,16.53280731462507
11,11_1,SE,,Alstern,59.71504983495708,13.910676074026425,158.1,879.66,,64.0,59.682954846713415,13.909873186081796
12,12_1,SE,,Amungen,61.05476039886881,15.704750640473748,228.2,6033.75,,,61.147667466148214,15.617719722134863
13,13_1,SE,,Ångesjön,62.51225822270322,15.675368973903836,158.7,280.5,3.3,10.0,62.512817685145905,15.633357055051269
14,14_1,SE,,Anjan,63.68110573181633,12.806915643054639,423.3,2411.03,12.4,56.5,63.70601277239362,12.604168204770145
15,15_1,SE,,Ankarvattnet,64.83628399494773,14.238785168227173,448.7,928.54,,72.0,64.85590236225794,14.224444447484531
16,16_1,SE,,Ånn,63.3142613078973,12.605371304117577,525.9,5710.12,,,63.269404776218316,12.566074149808905
17,17_1,SE,,Anundsjön,63.43199938519801,18.283281934809523,50.6,539.9,9.0,23.0,63.43983434888208,18.215431371220568
18,18_1,SE,,Åresjön,63.33925805446922,13.187659861254616,373.4,637.6,,18.6,63.379624424280934,13.111899237936955
19,19_1,SE,,Arresjaure,65.62270978616323,17.78736075035894,426.7,187.52,,,65.62434331621557,17.76158838603365
20,20_1,SE,,Årsjön,58.74985511957804,15.185392932842669,129.0,207.88,6.7,19.5,58.76133874383022,15.213133820874667
21,21_1,SE,,Askesjön,59.817387107698536,12.009444668882521,121.5,319.84,,22.0,59.83545858429737,11.975701637460519
22,22_1,SE,,Åsnen,56.54304677560633,14.757023731966632,139.0,14679.39,3.1,14.2,56.63047527912207,14.719212024767616
23,23_1,SE,,"Aspan, Lilla",60.52753075293319,15.531572186236287,110.5,80.63,4.9,12.5,60.53571423766218,15.528856492705906
24,24_1,SE,,Aspen,57.75147607520893,12.186741975873701,13.5,464.13,,29.5,57.761890442795064,12.230306900032472
25,25_1,SE,,Aspen,59.22023458456149,17.826959972861506,19.1,140.54,2.0,2.9,59.22781901832873,17.803357694607268
26,26_1,SE,,Assjön,57.80489645085504,14.96740642402849,253.6,476.87,,,57.79680233592692,14.949755731006245
27,27_1,SE,,Atjiken (Silverbergssjön,65.33909442141733,16.09388747190528,504.7,45.76,,,65.34240060131941,16.10059260813675
28,28_1,SE,,Avasjön,64.2798285991418,16.9034231481502,342.9,349.77,,,64.29843825360477,16.88712102383221
29,29_1,SE,,Balungen,60.87853244568524,15.752628080613684,198.8,1106.7,4.6,20.0,60.93029050141498,15.723159283149712
30,30_1,SE,,Bäsingen,60.17028238278792,16.434170739094725,67.8,1267.58,7.7,29.6,60.15055703097009,16.359877289585643
31,31_1,SE,,Bäsksjön,64.73299816635593,17.08674183255882,442.2,374.4,1.2,2.3,64.73029757564741,17.12655912572473
32,32_1,SE,,Båven Delen Vid Sparreholm,58.95092554102938,16.882730208035632,21.6,6385.64,9.4,48.0,59.02395024534006,16.91723238001706
33,33_1,SE,,Bellvikssjön,64.2627918384532,16.160215340696976,261.2,882.77,,19.3,64.27434732509761,16.138414448107135
34,34_1,SE,,Bergvattensjön,64.02151079056476,16.78281925796944,373.0,82.27,,,64.01774068642985,16.778048927973266
35,35_1,SE,,Bergviken,61.25874933984174,16.833492368224586,46.4,4264.17,,39.7,61.22830886937889,16.71551349840421
36,36_1,SE,,Betarsjön,63.737030768119965,16.769348087553983,196.9,3386.87,9.8,43.2,63.74940798314545,16.845361721276582
37,37_1,SE,,Björken Vid Grangärde,60.23930508938158,15.011022162466702,155.0,353.88,,8.0,60.25478429947952,15.002268290374316
38,38_1,SE,,Björken Vid Ställdalen,59.91180534128891,14.958631272092898,153.0,164.98,,,59.92292334327491,14.957289372483777
39,39_1,SE,,Björkvattnet Nedre,65.48935107373842,15.591121990175314,395.0,5624.11,18.3,61.5,65.49990449954156,15.540293591983563
40,40_1,SE,,Björkvattnet Övre,65.57833367445615,15.296363571779379,395.0,2521.18,,74.0,65.6100313623635,15.212357993322488
41,41_1,SE,,Bjuren,59.04802073337731,16.602972936492538,26.9,24.3,,,59.05031675304724,16.61043126237925
42,42_1,SE,,Blattnickselet,65.32077399354768,17.625553954796327,329.3,310.52,,,65.33626822104014,17.58371893400457
43,43_1,SE,,Bodasjön,61.75429939789313,16.15758581956379,114.4,150.2,,15.0,61.76083597760168,16.129292757903155
44,44_1,SE,,Bodumsjön,63.88998773164174,16.283356224150623,214.2,751.51,3.6,22.4,63.93025859160248,16.27814347821562
45,45_1,SE,,Bolen,58.78031274412893,16.159246111471486,62.9,48.16,7.2,14.0,58.77796213853061,16.155589920950746
46,46_1,SE,,Bölessjön,63.92354766049687,16.332433963990617,214.2,258.69,,19.8,63.936475617391515,16.342644501524102
47,47_1,SE,,Bollsjön,60.161438019761114,16.320363300831847,67.9,51.98,,,60.16894740283658,16.31397637581419
48,48_1,SE,,Bolmen,56.925344708773494,13.670177219231528,141.9,17226.91,5.4,36.0,56.92638462685537,13.70308276813554
48,48_2,SE,,Bolmen Norra Delen,57.04338314656918,13.745796934919346,141.9,17226.91,5.4,36.0,56.92638462685537,13.70308276813554
48,48_3,SE,,Bolmen Södra Delen,56.83083933953581,13.659177221569983,141.9,17226.91,5.4,36.0,56.92638462685537,13.70308276813554
49,49_1,SE,,Borasjön,58.971124177760096,14.568936562502715,107.8,384.22,,,58.95603711146731,14.554475721696965
50,50_1,SE,,Bordsjön,57.83478642351236,14.979506000409744,251.7,49.4,,,57.837892826166865,14.982470118215304
51,51_1,SE,,Boren,58.557134685928844,15.272295990003709,73.6,2749.67,5.3,13.0,58.55905372161661,15.180142616474228
52,52_1,SE,,Borgasjön,64.80509400773273,15.025861815260372,464.1,1652.24,20.2,70.0,64.85157029415907,14.936168038964372
53,53_1,SE,,Borgsjön,62.5296754491955,15.924872118363714,113.1,459.22,4.1,19.0,62.540656289844215,15.87968433585424
54,54_1,SE,,Borgsjön,63.39880020302514,15.867821551617379,348.4,168.9,,,63.41055338823765,15.838153789137623
55,55_1,SE,,Borkajaure,65.23287273305121,15.461698935397463,523.2,553.76,18.8,58.7,65.25240284831806,15.394892869459323
56,56_1,SE,,Bornsjön,59.25901835637253,17.71439914261632,11.6,631.14,,17.0,59.24029250957084,17.743511857770812
57,57_1,SE,,Börringesjön,55.49574245677596,13.301146364991393,49.0,275.35,1.5,3.0,55.48515173630679,13.313577121803217
58,58_1,SE,,Bosjön,58.7943866587596,14.621244216479145,157.0,102.12,2.2,16.0,58.79585835947632,14.635336525026904
59,59_1,SE,,Bouktjaure,66.76267664216374,17.28160839096634,476.0,149.65,,,66.77389323659494,17.26803146031746
60,60_1,SE,,Bredsjön,57.518908708180604,16.305846963959127,48.7,75.94,7.1,29.0,57.52152349527685,16.292102312422827
61,61_1,SE,,Bruksjön,57.6512701942316,16.36795982428859,41.9,35.81,,,57.64675180253025,16.365137949989222
62,62_1,SE,,Brukssjön (Rödjarbosjön),61.95928442965227,16.717818904681245,160.9,130.31,2.5,20.0,61.96647094241461,16.697603584942463
63,63_1,SE,,Brunnsjön,60.27183318723743,15.969916366463833,90.9,139.98,2.3,3.6,60.27553634242839,15.955570845124047
64,64_1,SE,,Bygdeträsket,64.3510968417885,20.496839690756556,131.4,2904.27,,,64.41492018870693,20.455171428416644
65,65_1,SE,,Bysjön,60.17041952204027,16.56261628345728,62.4,727.83,,16.5,60.17961949204535,16.50844188049058
66,66_1,SE,,Bysjön,60.25022224494348,14.976265738534167,155.1,502.91,,20.0,60.24664289781629,14.96900142239708
67,67_1,SE,,Bysjön,60.894018455153905,16.720055985421187,74.9,214.0,,,60.900295887278446,16.703407934964375
68,68_1,SE,,Bysjön,58.19306624434556,15.993580126047949,95.1,98.18,,,58.190719866824146,15.981236809173291
69,69_1,SE,,Byvattsjön,63.39307325736387,17.65273724069939,198.2,66.29,,,63.390953603759264,17.62286290545258
70,70_1,SE,,Daglösen Södra Delen,59.63581670880028,14.240678897242416,128.3,724.59,,26.0,59.66140420223357,14.203145048275314
71,71_1,SE,,Dalkarlsjön,59.93123432475793,14.128395676550447,301.3,291.97,,20.5,59.947660464142345,14.149947657701109
72,72_1,SE,,Dammsjön,59.74699459723309,14.9861085660735,196.7,101.61,,13.0,59.74955046379831,14.967512794622788
73,73_1,SE,,Digeshultasjön,56.89076741041737,12.966883109937442,162.9,21.49,2.1,9.5,56.89158445304523,12.961405947672139
74,74_1,SE,,Dikasjön,65.2145172279548,16.041889703169893,418.3,637.65,4.9,15.5,65.2224567195305,15.925122127777481
75,75_1,SE,,Djupträsket,66.32450504406638,22.875219103187494,36.7,859.86,,,66.28370679545911,22.911951287017047
76,76_1,SE,,Drogsjön,62.751015227497945,16.297943633105607,201.8,94.24,4.8,13.9,62.75530836026593,16.28130498429607
77,77_1,SE,,Ellenösjön,58.496842452840546,11.91851408535378,66.1,288.67,,7.0,58.50490526084462,11.95334128360239
78,78_1,SE,,Eneby Göl,57.888785625410335,16.16294397887319,85.9,12.46,,,57.885971807015814,16.1645745843116
79,79_1,SE,,Erken,59.85400132764526,18.651236049941133,11.6,2320.94,,20.0,59.84585050177557,18.57178130484493
80,80_1,SE,,Fåfallasjön,58.1965362484208,16.409697027020307,52.7,45.62,,,58.19554617946724,16.422308673076213
81,81_1,SE,,Fågelsjön,61.79706422209108,14.637365135781186,408.5,791.33,,,61.78328168594982,14.651068773561315
82,82_1,SE,,Fågelsjön,64.34214952907097,14.805599700735499,296.6,263.94,,83.0,64.34198652329894,14.735353510437983
83,83_1,SE,,Fagervikssjön,62.65187806449861,16.411172935175152,201.8,533.63,5.4,24.0,62.662273593995415,16.444375904157724
84,84_1,SE,,Fängsjö,57.29397019321106,12.671675782570766,128.5,27.73,3.7,10.2,57.29808096204385,12.678453553876526
85,85_1,SE,,Fångsjön,63.7876908911078,15.750621543116836,280.5,748.03,,20.0,63.813200876618104,15.707160642896046
86,86_1,SE,,Fättjarn,65.3127351721992,15.28734927172429,561.4,925.7,19.9,46.3,65.3251171326086,15.168394561451594
87,87_1,SE,,Finnebysjön,62.02622543868922,15.470597710407608,249.6,142.82,,,62.03449606791636,15.45764811107847
88,88_1,SE,,Finnforsbodträsket,64.7415240922258,20.147803411396207,262.1,68.13,,,64.73989429678353,20.16347571465139
89,89_1,SE,,Fjällsjön,63.788973905382505,16.425870254247762,207.6,817.45,4.6,20.6,63.818996670849565,16.330502688848245
90,90_1,SE,,Fjosokken,65.52993985791878,16.82527514823442,410.5,1272.97,15.7,62.2,65.60042417575544,16.690832600307427
91,91_1,SE,,Flakaträsket,64.25269232452115,18.503886447295525,382.1,66.03,,,64.25964736241222,18.498216253580214
92,92_1,SE,,Flämsjön,58.45035946145124,13.667224518648004,130.5,109.32,,15.0,58.451046506597685,13.6740694417061
93,93_1,SE,,Flåren,56.95307173274274,14.055540752860173,151.4,3510.73,4.1,15.4,57.029664926021105,14.100308763805074
94,94_1,SE,,Flåsjön,64.13077877976632,15.916865539411718,266.2,10933.31,,88.0,64.11779716585116,15.785994805902131
95,95_1,SE,,Flästasjön,61.428261008806295,16.419198888098173,92.3,287.4,3.2,11.8,61.44724245470723,16.408459303462735
96,96_1,SE,,Flaten,57.34078135719083,13.905906934199855,162.5,348.92,3.1,9.0,57.35259984843723,13.912089809236543
97,97_1,SE,,Flötningssjön,61.8572820650748,12.225928741745621,662.2,223.51,,,61.86134315166946,12.195949093376539
98,98_1,SE,,Forshultsjön,57.25112076630841,16.311164519948054,43.3,33.75,2.8,6.8,57.2534434790431,16.31063147955726
99,99_1,SE,,Frösjön,59.04754325086808,17.321196655843416,9.8,344.13,2.8,5.8,59.062052175280776,17.317519854896915
100,100_1,SE,,"Fryken, Nedre",59.54294756366912,13.298049649804124,62.3,1249.23,,22.0,59.56393445399,13.32403084860188
101,101_1,SE,,Funbosjön,59.859571485715925,17.85954660173318,5.9,196.58,1.7,5.5,59.88045271863848,17.864755230495774
102,102_1,SE,,Funnäsdalssjön,62.51936482537123,12.594052537163437,583.3,213.96,,,62.532603107127265,12.556626938004216
103,103_1,SE,,Furen,56.96603515802192,14.597027994937749,151.5,352.95,,,56.97368090275096,14.624794173735678
104,104_1,SE,,Gafselsjön,63.77836204894927,17.599184519168887,299.5,107.7,1.8,7.9,63.794018763583914,17.563331050357558
105,105_1,SE,,Gammhemssjön (Gammalhems,64.58908681119995,18.312165921817655,281.3,57.49,,,64.60089016624579,18.31142429132201
106,106_1,SE,,Gänsen (Gensen),60.572674990049194,14.41099266033557,233.0,321.09,7.4,20.2,60.584955939875776,14.406723775847297
107,107_1,SE,,Gärdefjärden,64.37324429057112,21.3187642265892,2.3,442.34,,,64.377985526518,21.34467488134375
39,39_2,SE,,Gardiken,65.47613213877378,15.856908205109292,395.0,5624.11,18.3,61.5,65.49990449954156,15.540293591983563
108,108_1,SE,,Gärdsjön,64.28479229383701,15.21073064307627,287.1,1301.17,,55.5,64.31888809946943,15.117613372802962
109,109_1,SE,,Gastsjön,62.96115542401738,15.901980712054547,322.4,143.27,2.6,9.4,62.96154864715859,15.877962240673218
110,110_1,SE,,"Gautsträsk, Övre",65.93102285860887,16.301496493903514,401.1,548.03,,44.9,65.94865883430134,16.277197898633236
111,111_1,SE,,Gåxsjön,63.67294363915119,15.101180144626538,310.4,1528.83,9.7,26.0,63.697661553127446,15.040593444602484
112,112_1,SE,,Gåxsjön,63.93741469487356,15.846162009555561,287.4,378.07,,,63.92386411692606,15.866275930818423
113,113_1,SE,,Gesunden (Gesundsjön),63.14602692109481,16.06978581303919,204.6,2959.54,,55.3,63.151368135660306,15.912678574613443
114,114_1,SE,,Gevsjön,63.39644061423496,12.634257631487246,499.2,1116.01,11.9,31.6,63.37804833494636,12.650478719534622
115,115_1,SE,,Giertsjaure,65.83015855848059,17.189225135687174,468.0,686.39,6.1,26.0,65.86758647379898,17.145488776240043
116,116_1,SE,,Gikasjön,65.0987606886468,15.097479593552226,556.3,291.24,6.4,19.5,65.11999711101724,15.05826459419381
117,117_1,SE,,Giltjaure,65.5317723005979,17.004234091894947,430.6,501.59,,,65.54775380200375,16.983682082928567
118,118_1,SE,,Gimodamm,60.17831565791234,18.171421131004454,17.7,315.3,1.7,2.9,60.19382465208845,18.155473308446012
119,119_1,SE,,Gittunjaure,66.28109552730514,18.54580772515588,406.4,164.91,,,66.28884917571459,18.5359832344704
120,120_1,SE,,Glan,58.594125606368955,16.08325057992937,22.0,7290.48,,18.0,58.62240771421874,15.959653440600759
121,121_1,SE,,"Glommersträsk, Yttre",65.25408733793913,19.64200768993314,352.4,26.96,,,65.25365715892704,19.648177748531776
122,122_1,SE,,Gnötteln,57.50218365357673,15.885276675392445,102.2,174.27,1.7,4.0,57.507919611215414,15.893453636808124
123,123_1,SE,,Godebrunnssjön,58.057403791812995,14.572568796952062,271.2,10.35,,,58.05661605811715,14.570344035026354
124,124_1,SE,,Gopen,60.71413618095029,15.369520184881631,166.5,250.88,6.3,30.0,60.71820782570963,15.356962417657842
125,125_1,SE,,Göuta,65.60160711424673,15.51862893966985,441.0,3141.97,17.2,58.0,65.66466017647167,15.411712976748628
126,126_1,SE,,Graningesjön,63.055738236044384,17.01115919093585,203.4,1721.78,,,63.01229503581515,17.087546947267718
127,127_1,SE,,Gränssjön,59.740036958936614,15.022733293910946,184.1,194.17,6.4,27.0,59.73751555106985,15.011366627057438
128,128_1,SE,,Granträsket Nr 1,64.43786686421991,18.097044090684744,453.1,104.37,,,64.43716451412722,18.081680640088997
129,129_1,SE,,Grindsjön,59.080332105936264,17.88397008923295,32.3,139.66,9.0,19.5,59.085086842839836,17.872636057862643
130,130_1,SE,,Grötingen (Grötingsjön),62.86014706067103,15.569924584134519,265.2,469.45,,,62.86259573054225,15.48248319542585
131,131_1,SE,,Grövelsjön,62.10684640484229,12.293326184091137,763.2,410.67,11.6,34.0,62.13647655457379,12.283111190156443
132,132_1,SE,,Gruvsjön,58.271042995827564,16.020914587975078,81.6,10.76,,,58.267785509384304,16.026843215742254
133,133_1,SE,,Grycken,60.433410568272556,16.210974092803102,127.0,1028.07,,,60.457839017478975,16.216932914258507
134,134_1,SE,,Grycken,60.92402205920917,12.896644314897122,429.8,40.92,,,60.933365018888026,12.894583784380455
135,135_1,SE,,Gryten,59.00687986940632,14.489334621756894,139.7,72.56,,,59.001158663900185,14.490579194960334
136,136_1,SE,,Gunnarvattnet,64.09260332083473,14.13411932456227,388.5,337.25,11.8,31.0,64.11008811880271,14.127689383402782
137,137_1,SE,,Haggen,60.12088886137895,15.274696133869723,150.9,858.56,8.5,29.0,60.09279928380593,15.233799160982688
138,138_1,SE,,Häggsjön,63.50848231374609,12.711278691520796,436.9,789.15,,36.0,63.52496875698596,12.671049389526118
139,139_1,SE,,Häggsjön,63.88829820047822,14.341534494962028,320.3,1554.33,,57.0,63.89721377888002,14.284928073084211
140,140_1,SE,,Hajs Sjö,58.00071839347467,12.141449536960042,0.3,7.56,,,58.00259504787936,12.143713493958712
141,141_1,SE,,Halasjön,63.411277968638586,15.351621090678664,327.7,360.83,,,63.39595854511367,15.347757252331997
142,142_1,SE,,Hålen,60.43960208180983,16.180719266250723,119.0,22.06,,,60.436821656250125,16.18443495793881
143,143_1,SE,,Hålen,62.640482766950996,14.391756559776411,354.0,505.3,6.9,22.6,62.66699859858269,14.397188724965293
144,144_1,SE,,Hallbosjön,58.858862728227045,16.69947603382654,19.8,1115.72,,,58.8392976284094,16.68241057622363
145,145_1,SE,,Hällerstadsjön,58.45474511406712,16.140392084682745,48.2,145.84,,,58.44213677261809,16.143448074929
146,146_1,SE,,Hällsjön,62.05369261544481,12.670903291932966,539.6,163.18,,,62.06393007259804,12.667946169406644
147,147_1,SE,,Hällsjön,63.457708765709306,13.996806208873101,314.7,546.3,20.2,41.5,63.47145751029943,13.948597996199199
148,148_1,SE,,Halvarsnoren Norra Delen,59.622551334869065,14.609030345858825,165.8,1679.65,12.2,40.0,59.594988993554274,14.604622500125314
149,149_1,SE,,Hammardammen,60.55512237218726,16.28904929825505,137.1,21.25,,,60.55742732487594,16.28291640050297
150,150_1,SE,,Hammerdalssjön,63.538397259966736,15.445301909370375,303.0,1518.69,4.8,16.0,63.57874248540708,15.400031972958267
151,151_1,SE,,Hån,60.179663868518176,14.408956731679835,324.6,314.69,,,60.19578096403582,14.412422039311743
152,152_1,SE,,Hån,61.85688192432907,14.093810756989175,431.1,30.3,,,61.858049245029875,14.083223028732345
153,153_1,SE,,Handsjön,62.46883084245928,14.78429766329236,289.2,498.34,3.8,8.0,62.482115274110186,14.742712492953494
154,154_1,SE,,Hångstadssjön,59.854504879901704,11.972522766910016,121.5,37.78,,,59.862491825417166,11.974512380497247
155,155_1,SE,,Harefjorden,59.159722082827756,12.912735976356752,45.5,1550.03,,9.0,59.203550437613636,12.849677994350289
156,156_1,SE,,Hasselasjön,62.06539675550749,16.814719006015462,121.9,834.23,3.4,17.0,62.081599745151756,16.77124400211583
157,157_1,SE,,Havbältefjorden,56.50528490398607,14.710643105701173,138.4,235.88,,,56.526403020645304,14.730451826657667
158,158_1,SE,,Havern,62.38627115047167,15.101817703237712,259.7,2933.71,10.8,36.0,62.309304345443934,15.10721547217615
158,158_2,SE,,Havern Kyrksjön-Delen,62.36343004904937,15.109693376154594,259.7,2933.71,10.8,36.0,62.309304345443934,15.10721547217615
158,158_3,SE,,Havern Öjesjön-Delen,62.39885445532103,15.021846729744876,259.7,2933.71,10.8,36.0,62.309304345443934,15.10721547217615
159,159_1,SE,,Hedesundafjärden Nedre Delen,60.31435870305465,17.03549082980844,51.9,2983.6,,1.0,60.30835554759971,16.992493998776045
160,160_1,SE,,Helgasjön,56.89099771712768,14.750244037745704,162.7,4829.36,,20.6,56.96444574566824,14.776553428414834
161,161_1,SE,,Helgumsjön,63.15393133325016,16.953128624549823,113.0,836.37,10.4,33.2,63.195993410849226,16.874804968588474
162,162_1,SE,,Hemsjön (Sörbygdsjön),62.77661913534467,16.23275964279336,209.0,506.72,,,62.78490379703386,16.19112610204203
163,163_1,SE,,Hennan,62.02695655813493,15.905720155416349,208.3,2347.1,,,62.07389093755445,15.796209611369793
164,164_1,SE,,Hetögeln,64.38836575343018,14.430823728435415,296.2,2284.88,19.4,60.0,64.42277681590424,14.270807815805696
165,165_1,SE,,Hinsen,60.63950175220086,16.13643394714497,192.9,1184.19,,,60.66186377150267,16.090729037322006
166,166_1,SE,,Hjälmaren Hemfjärden-Delen,59.28032054526535,15.33556900914236,22.3,47434.17,,18.0,59.23878700253138,15.769699988539179
166,166_2,SE,,Hjälmaren Östra Delen,59.26709649418768,16.259657926964476,22.3,47434.17,,18.0,59.23878700253138,15.769699988539179
167,167_1,SE,,Hjälmsjön,56.282153912083956,13.304852339034849,76.6,115.63,4.0,10.0,56.278791456764424,13.309778693050422
168,168_1,SE,,Högsjön,59.03043018661038,15.735334492264075,50.9,315.89,,,59.02731780484792,15.708128401973257
169,169_1,SE,,Hökasjön,58.75255759936275,15.150966717033272,121.4,52.98,,16.3,58.75455718702201,15.130583889652002
170,170_1,SE,,Holdern,63.998245229730124,12.914671248642657,439.9,814.47,,,64.03278449079309,12.898334829850695
171,171_1,SE,,Höljessjön,60.95111252722408,12.542733656971576,304.1,0.28,,,61.04665820289966,12.610211178153731
172,172_1,SE,,Holmsjön,62.422695794548744,15.456487970801625,245.0,5046.29,7.3,24.0,62.439184821945744,15.321032299124074
173,173_1,SE,,"Holmsjön Delen Sandnäset-Västbyn&"",""&",62.677448378912636,16.507733161554537,202.2,3636.16,11.9,38.0,62.677120237656446,16.517305365547866
173,173_2,SE,,Holmsjön Delen So Om Västbysundet,62.64057604090622,16.682326815744016,202.2,3636.16,11.9,38.0,62.677120237656446,16.517305365547866
173,173_3,SE,,Holmsjön Delen V Om Sandnäset,62.6961600019313,16.332385866297283,202.2,3636.16,11.9,38.0,62.677120237656446,16.517305365547866
174,174_1,SE,,Holsjön,57.4121738702988,12.917968345748346,146.9,538.15,,11.0,57.40489403283418,12.93815040485398
175,175_1,SE,,Holsvattnet,65.96053228636644,21.521581780109745,62.3,631.64,,,65.96930160641442,21.450672870453428
176,176_1,SE,,Hornavan,66.23956864358975,17.53474032773231,426.8,26062.41,45.8,221.0,66.21259216728205,17.60379451572981
176,176_2,SE,,Hornavan Myrviken-Delen,66.22232153412217,17.471332558867214,426.8,26062.41,45.8,221.0,66.21259216728205,17.60379451572981
176,176_3,SE,,Hornavan Nedre Delen,66.10130119828915,17.839429997785192,426.8,26062.41,45.8,221.0,66.21259216728205,17.60379451572981
177,177_1,SE,,Horrmundsjön,61.313487719452525,13.159437230289823,441.1,1199.31,,5.0,61.352455253732046,13.196651465108959
178,178_1,SE,,Hosjön,60.92016695301986,15.090533858540567,211.9,14.12,,,60.92255090115372,15.097599176988142
179,179_1,SE,,Hostsjön,63.751036075502036,15.540633411596618,287.2,174.64,,,63.748057821171834,15.523235169556472
180,180_1,SE,,Hotagen,63.78904622768725,14.66803020098558,314.5,4511.28,,62.5,63.889003497272405,14.415845393529152
181,181_1,SE,,Hotingssjön,64.08243652645675,16.245447102501238,239.7,407.31,5.0,18.9,64.10217771499255,16.213513920713417
182,182_1,SE,,Hovnäsfjärden,60.18416958742007,16.649078540373846,61.2,659.31,,15.0,60.19007910442983,16.59250389629843
183,183_1,SE,,Hugn,59.78163294737831,12.304005838093723,87.6,730.55,,11.8,59.800544857651374,12.273774846917265
184,184_1,SE,,Hultbren,57.12452096152108,15.377612738148104,240.6,190.35,,,57.1168431354218,15.37435606251807
185,185_1,SE,,Hungesjön,62.749463380527835,15.063430616525343,336.4,903.32,5.3,17.0,62.7223004102066,15.083079121254652
186,186_1,SE,,Hunsnäsen,57.669306398556316,14.980426472652399,205.9,68.56,3.6,8.5,57.672422210762356,14.989139471052004
187,187_1,SE,,Hyen,60.58315818982843,16.253528071264732,170.7,829.66,2.6,15.0,60.60056236221124,16.203109214920307
188,188_1,SE,,Hyn,60.893717583032014,16.02135231578543,338.8,741.98,9.6,30.0,60.89550809811298,15.976349911489534
189,189_1,SE,,Idresjön,61.832659693313325,12.827231788432872,442.6,263.13,,,61.84547388290031,12.764931053181234
190,190_1,SE,,Idsjön,62.81796659003704,15.712060408869178,261.7,911.21,,,62.85124109314503,15.634198378988625
191,191_1,SE,,Igeltjärn,59.601478122794866,13.456677902153531,66.4,6.71,,,59.60280077995703,13.456217192328243
192,192_1,SE,,Ingsbergssjön,57.651946120606965,14.705286820804012,292.9,13.44,1.5,2.5,57.65415613118932,14.703776672175296
193,193_1,SE,,Innaren,57.00106785515815,14.882562954286461,176.7,1480.87,6.3,19.0,56.997509618227014,14.940036601694805
194,194_1,SE,,Inre-Klippträsket,64.7724112830522,19.407988763296647,283.0,101.23,4.4,9.9,64.78190436681653,19.395465650267855
195,195_1,SE,,Insjön,60.68413959567493,15.076200591082717,162.1,754.41,,14.8,60.69108491013224,15.126896583955673
196,196_1,SE,,Insjön,64.60317689238481,16.58700054761959,335.2,132.59,,17.3,64.59758780534099,16.581421784560543
197,197_1,SE,,Ivösjön,56.0713458710568,14.461073803279243,5.9,4992.02,,50.0,56.10633416649594,14.424454250745676
198,198_1,SE,,Jåkarn,64.90442766274221,18.222148739770756,266.8,80.11,,,64.90969909550714,18.218770630558883
199,199_1,SE,,Jäknajaure,66.065434683935,19.002806498289342,390.9,744.33,,,66.07786289642644,18.935408495208183
200,200_1,SE,,Järtajaure,65.51871495060264,18.911663696243227,430.8,157.94,,,65.50973870935519,18.924260918915355
201,201_1,SE,,Jeppmasjön,64.81401956844824,17.175647669036234,501.7,68.62,,,64.81146409599239,17.184189983067483
202,202_1,SE,,Jetesjön,56.46091748168254,13.607411709148879,100.4,57.15,,,56.46554308492695,13.608885609578813
203,203_1,SE,,Jokksjaure,65.66870125973482,15.523972901695112,475.0,386.36,,,65.67271423802026,15.578762646816594
204,204_1,SE,,"Jovattnet, Nedre",65.74128922944627,15.074672550311229,460.4,430.47,,22.0,65.74056885851283,15.00026116229904
205,205_1,SE,,Jukkasjärvi,67.79713189438874,20.80601902330934,323.4,1333.2,,,67.83000371144949,20.685918732237933
206,206_1,SE,,Juvuln,63.70133873051777,12.958776956992592,392.3,3723.0,,70.0,63.714270660089184,13.136524710801856
207,207_1,SE,,Kaalasjärvi,67.7468175254004,20.012688131839077,460.3,1628.6,,,67.77752879234173,19.89296569695783
208,208_1,SE,,Kaarevuopio,68.43135391242893,22.506583093405858,320.4,110.67,,,68.43449350740853,22.480625520855263
209,209_1,SE,,Kallsjön,63.62075429225401,13.00155796913173,381.0,15747.39,,132.0,63.5846282935665,13.050203276964316
209,209_2,SE,,Kallsjön Östra Delen Av Kallsjön,63.438470676942494,13.340180886565076,381.0,15747.39,,132.0,63.5846282935665,13.050203276964316
210,210_1,SE,,Kalvsjön,61.66677357740135,16.312153980954395,114.0,362.33,,22.8,61.68539589292353,16.315029876718512
211,211_1,SE,,Kalvsjön,57.856738263677784,16.04539380515398,120.2,19.44,2.3,5.5,57.854212907164055,16.043907082065815
212,212_1,SE,,Kamlungträsket,66.00234408809219,22.851665239185206,26.3,1061.7,,,66.04488778760829,22.782599420838928
213,213_1,SE,,Kantsjön,63.72328467245818,18.665342252535698,184.5,35.6,,,63.72280126081635,18.65789485877862
214,214_1,SE,,Karats,66.65028538160439,18.8259577193261,414.6,5933.34,8.0,31.5,66.70709351564562,18.67525069937388
215,215_1,SE,,Kärrnässjön,63.911908025430016,15.311957563329194,294.3,600.83,,,63.93991094658464,15.26043805296071
216,216_1,SE,,Kärrsjön,63.743005055888176,18.54675638560373,188.3,78.66,,,63.73929303590025,18.563347684869097
217,217_1,SE,,Kårtejaure,67.47719823893672,18.322445314171635,411.4,704.46,26.9,10.0,67.49669197761568,18.266295782228944
218,218_1,SE,,Karvsjön,63.53180282440348,17.12488400977192,238.6,185.71,3.7,9.7,63.52881860895892,17.10515331926151
219,219_1,SE,,Kasasjön,63.32029438070953,19.05802480311077,22.0,16.67,,,63.32144701460383,19.06256656779748
220,220_1,SE,,Kättbosjön,60.835794145549734,14.159917162212587,278.4,783.41,,,60.83768420931645,14.213517259814513
221,221_1,SE,,Kaunisjärvi,67.38405857206016,23.379213039047027,161.0,66.36,,,67.38644746671436,23.36464507662321
222,222_1,SE,,Kautujärvi,66.73094437589053,21.803975460708816,248.6,112.62,,,66.7465868975699,21.796845848886633
223,223_1,SE,,Kesajärv,66.32109417841103,22.330765742834068,137.1,62.46,,,66.3089689296493,22.34293253927011
224,224_1,SE,,Kindsjön,60.658546164421146,12.704350623336392,412.1,191.7,,7.0,60.6425055446733,12.704080302627576
225,225_1,SE,,Kisasjön,58.01920150857582,15.652239458726566,99.1,218.92,,,57.999217240241975,15.652064506912696
226,226_1,SE,,Klubbuddsjön,66.67592887950414,19.686499853835965,260.0,2539.92,,11.0,66.66793524903437,19.705679400294528
227,227_1,SE,,Kolerträsket,65.5060732172289,20.46369416880941,279.5,63.42,,,65.49985445273671,20.475832108174554
228,228_1,SE,,Kolsnaren,59.03553174405397,15.985949369016577,33.5,1063.23,2.7,12.3,59.04213947776528,16.0016521958922
229,229_1,SE,,Korpijärvi,66.01960136114612,23.571291207801178,49.5,125.08,,,66.03025015451789,23.576476096974012
230,230_1,SE,,Korpilombolojärvi,66.84610507167348,23.070706293715613,158.9,42.01,,,66.85627099646244,23.058742245010418
231,231_1,SE,,Korsvattnet,63.840474029953654,13.513032120982807,743.7,1199.78,19.9,81.0,63.872986848945395,13.527003163436634
232,232_1,SE,,Koskatsjaure,66.46775637269641,20.32681272441926,239.8,175.02,,,66.47001695620992,20.304062100872777
233,233_1,SE,,Kottlasjön,59.3443263534574,18.18365766954541,11.8,22.95,,7.5,59.34883974360096,18.18442006771385
234,234_1,SE,,Krakstadstjärn,59.17321281900727,12.467998351286244,222.7,17.17,,,59.174218585202986,12.47591190279976
235,235_1,SE,,Kroksjön,64.48743377416588,18.012959555694078,462.3,14.17,,,64.49091499593361,18.014373248938913
236,236_1,SE,,Krokströmmens Dammsjö Kroksjön,62.04151905029089,14.90034255499079,339.3,409.65,,,62.03815692372541,14.849033583311853
237,237_1,SE,,Kuittasjärvi,66.66045999836126,23.841443935398626,75.9,289.42,,,66.66694331087346,23.82244306501775
238,238_1,SE,,Kultsjön,64.96311420630522,15.438076588440131,542.3,5309.2,21.3,129.8,65.02709264078808,15.143130311261086
239,239_1,SE,,Kvarnbergsvattnet,64.5025978587062,14.154061570408887,309.9,6546.86,41.0,99.0,64.58166699944913,13.948213254165346
240,240_1,SE,,Kycklingvattnet,64.561750314652,14.132538588889421,346.2,2385.97,,,64.63130282164852,14.091813023520995
241,241_1,SE,,Kyrksjön,57.90232579143366,16.169149569467095,85.8,328.74,,,57.90177193313915,16.148593901202666
242,242_1,SE,,Kyrksjön,64.36205645405815,21.310080073229777,11.1,6.72,,,64.3600551474418,21.308488473235098
243,243_1,SE,,Kyrksjön (Nr 1) Arbrå,61.48907533353648,16.384728565321613,113.9,474.23,,11.0,61.50603985866066,16.388343546595426
244,244_1,SE,,Kyrksjön (Nr 2) Y.hogdal,62.173527509856164,14.943999708774529,259.4,210.53,,,62.165034359172964,14.933308377389958
245,245_1,SE,,Kyrksjön (Nr 3) Ljusdal,61.82330931696599,16.07583363042866,124.1,61.75,,17.0,61.82378279178143,16.085817396421234
246,246_1,SE,,Labbas,66.37896075565364,17.784311559414167,488.5,2103.84,,,66.40783168180351,17.594209319316906
247,247_1,SE,,Läen,56.75060324934668,15.286093806961164,167.7,1080.61,3.7,14.5,56.75673222089657,15.335429555251292
248,248_1,SE,,Laforsens Dämningsområde,61.94418647877447,15.498168361840632,214.8,212.71,,,61.94568219695453,15.46011054772089
249,249_1,SE,,Laisan,65.99181937044982,17.19643059782588,424.6,2734.2,,66.0,66.1338827131842,17.121264654208062
250,250_1,SE,,Laitaure,67.12200094806322,18.388275760940758,495.9,982.96,,,67.13072173515337,18.299341820698395
251,251_1,SE,,Landögsjön,63.54765794070648,14.285620191872034,319.7,4577.62,,71.0,63.599165900114656,14.048464497872951
252,252_1,SE,,Landvettersjön,57.66232388832203,12.133595264189625,54.7,216.49,,21.0,57.67641965626795,12.174762855526419
253,253_1,SE,,Langas,67.30883923404741,18.95571171378021,375.1,5190.3,,73.0,67.39159738241175,18.667295418058213
254,254_1,SE,,Lången,59.33677223325175,15.182975385961027,38.9,61.83,1.7,4.5,59.34812108068423,15.175890089658697
255,255_1,SE,,Långsjön,61.52172609453516,15.368755801682282,217.7,18.3,,,61.51805506959202,15.376345812172467
256,256_1,SE,,Långsjön,57.69841156267492,16.32558895732368,55.1,750.4,,,57.705772138466884,16.30136899126257
257,257_1,SE,,Långtjärn,61.279668079544024,13.99796103322787,274.8,8.95,,,61.281432090959875,14.002213878526337
258,258_1,SE,,Långvattnet,65.1801559692635,16.54354120662203,412.2,1752.77,,,65.12159061872664,16.599498325477974
259,259_1,SE,,Lännässjön Fotingen-Delen,62.65025431600488,14.049745449477795,437.8,1919.02,,24.0,62.59648810137184,14.107509229627484
259,259_2,SE,,Lännässjön Klövsjön-Delen,62.5526741596276,14.142992413673296,437.8,1919.02,,24.0,62.59648810137184,14.107509229627484
259,259_3,SE,,Lännässjön Lännässjön-Delen,62.59728326765718,14.12102629337573,437.8,1919.02,,24.0,62.59648810137184,14.107509229627484
260,260_1,SE,,Lappträsket,66.167783341164,21.812300144025944,51.6,923.28,5.8,16.8,66.19749099992492,21.76477478615166
261,261_1,SE,,Latalam,60.16024954496051,14.744952844542643,271.5,8.97,,,60.16087194993757,14.738419705470855
262,262_1,SE,,Lauker,65.64774904394156,19.75129613906619,351.7,1107.31,,,65.63382861697607,19.819647583707734
263,263_1,SE,,Laxsjön,58.93648456049209,12.281987347726329,76.0,1610.23,,46.0,58.98165873924255,12.286890176277689
264,264_1,SE,,Ledfat (Ledvattnet),65.43470412110776,18.621978061171856,408.9,3884.98,,24.0,65.47288199596774,18.44366504530059
265,265_1,SE,,Leipikvattnet,64.91343025562261,14.204272055893643,468.9,502.81,2.6,24.8,64.92664965948364,14.180581140839656
266,266_1,SE,,"Lejen, Stora",60.2056939523598,14.391797872222837,328.6,577.56,,,60.216645235769846,14.367369198287928
267,267_1,SE,,Lelången Norra Delen,59.29712790706047,11.912860909706987,94.1,5264.77,,47.0,59.18045857378424,12.062176299199368
267,267_2,SE,,Lelången Södra Delen,59.07459393298515,12.203948992991187,94.1,5264.77,,47.0,59.18045857378424,12.062176299199368
268,268_1,SE,,Lenhovdasjön,57.004142374125,15.29309322696311,261.1,51.5,1.5,2.4,57.00003807241851,15.297811786477169
269,269_1,SE,,Leran,60.14597451206308,15.359434804863417,110.8,262.5,,,60.15025396999686,15.33143300846114
270,270_1,SE,,Leringen,62.57526215274226,16.42965226332915,201.8,1979.75,13.6,41.0,62.62131719279667,16.401480961369884
271,271_1,SE,,Lesjön,59.98689345474852,14.178435908714738,234.7,87.45,,15.6,60.002739588076814,14.165486535058456
272,272_1,SE,,Letten,60.73245356087118,12.688413981547757,347.0,1542.07,,23.0,60.7106261643579,12.67385763322551
273,273_1,SE,,Levrasjön,56.108876466549155,14.48467998720828,7.3,259.56,10.6,18.5,56.1058561109806,14.491508929246939
274,274_1,SE,,Likstammen,58.931413727194936,17.261920498675543,25.3,951.26,11.2,27.0,58.963930129463336,17.2053575142682
275,275_1,SE,,Lilla Lindessjön,59.58810678242687,15.239933901452746,61.0,12.17,1.7,6.0,59.58422771704991,15.234446147560265
276,276_1,SE,,Lilla Skeppträsket,65.2042759047684,18.753939094480987,313.4,275.91,,,65.20615769618257,18.727395310425326
277,277_1,SE,,Lilla Snesen,60.610691122357906,14.50467515009695,302.0,653.02,5.3,13.4,60.64313054660009,14.527832228741872
278,278_1,SE,,Lilla Tjulträsket,65.96604035359249,15.914622234813487,535.0,64.36,,,65.9691620869628,15.890230447245841
279,279_1,SE,,Lill-Aspsjön,63.39261292174133,17.531651545630346,237.8,43.08,,,63.39309055334198,17.513361441507257
280,280_1,SE,,Lill-Bjurvattnet (Bjurva,63.87167670148507,18.951012368477514,222.2,13.53,,,63.86829227924089,18.958620656716068
281,281_1,SE,,Lill-Glän (Lillglän),62.63889917964027,12.127208409984162,828.6,16.78,,,62.64206932381662,12.126833098060386
282,282_1,SE,,Lill-Jorm,64.67729627411425,14.069057493956066,346.2,2009.63,,,64.70406580308806,14.008794788520559
283,283_1,SE,,Liten,63.29657209610413,13.686821443712097,317.8,1613.91,,21.0,63.31922204739501,13.52944341027936
284,284_1,SE,,Ljugaren Dådransjön-Delen,60.9683398946885,15.519100687731818,216.4,2311.76,,,60.97058514851816,15.382919851807069
284,284_2,SE,,Ljugaren Ljugaren Utom Dådransjön,60.98271256703575,15.417191625554663,216.4,2311.76,,,60.97058514851816,15.382919851807069
285,285_1,SE,,Ljusnaren,59.832070550299214,14.997391467642814,163.2,955.39,,,59.85829249787765,14.947683504196728
286,286_1,SE,,Ljusnedalssjön,62.508124569876,12.684426320122137,566.3,372.26,,,62.5180231517046,12.650949434133588
287,287_1,SE,,Ljustern,60.343451076489316,15.742643685987268,152.6,301.6,,,60.33588921826953,15.726743404379059
288,288_1,SE,,Locknesjön,62.91976842293331,14.939457668142579,328.5,2641.46,,57.4,62.99419390595534,14.855889058964502
289,289_1,SE,,Lofssjön,62.038584386942105,13.498671719708287,594.1,1733.43,,46.1,62.07417271138129,13.387771457103337
290,290_1,SE,,Lossen,62.403752723459895,12.924869128425529,564.0,3113.96,,,62.44098026530385,12.789837798766618
291,291_1,SE,,Lövsjön,63.71690681464597,14.69015232728279,302.8,833.0,7.8,22.5,63.740556638365824,14.69492652200434
292,292_1,SE,,Lungen,59.69930058073546,13.990619477263516,155.7,711.75,,18.1,59.712490237339175,13.950285593967607
293,293_1,SE,,Luossajärvi,67.87765329777059,20.16574191885617,500.0,133.94,,,67.86937779565687,20.1800592796987
294,294_1,SE,,Lygnern,57.48529450110022,12.265872952188234,15.2,3132.52,,45.0,57.48070975010539,12.32596075252554
295,295_1,SE,,Magrassen,62.30038565940438,13.789462886677665,401.1,122.96,,15.0,62.308953173648874,13.771867505144355
296,296_1,SE,,Mälaren Galten,59.45666923676762,16.263603865875854,0.9,107228.4,12.8,66.0,59.45236104685133,17.19018946381778
296,296_2,SE,,Mälaren Garnsviken,59.64059197490549,17.746661939336466,0.9,107228.4,12.8,66.0,59.45236104685133,17.19018946381778
296,296_3,SE,,Mälaren Granhammarsfjärden,59.50509826738724,17.800696006597132,0.9,107228.4,12.8,66.0,59.45236104685133,17.19018946381778
296,296_4,SE,,Mälaren Kyrkfjärden,59.26789371494636,17.751729211431208,0.9,107228.4,12.8,66.0,59.45236104685133,17.19018946381778
296,296_5,SE,,Mälaren Långtarmen,59.29929370468357,17.75352203399313,0.9,107228.4,12.8,66.0,59.45236104685133,17.19018946381778
296,296_6,SE,,Mälaren Norra Björkfjärden,59.44220553254924,17.441757877543225,0.9,107228.4,12.8,66.0,59.45236104685133,17.19018946381778
296,296_7,SE,,Mälaren Skarven,59.57686465690086,17.80494279852636,0.9,107228.4,12.8,66.0,59.45236104685133,17.19018946381778
296,296_8,SE,,Mälaren Strängnäsfjärden,59.381685036611685,17.033244458850177,0.9,107228.4,12.8,66.0,59.45236104685133,17.19018946381778
296,296_9,SE,,Mälaren Svartsjöviken,59.35814065682684,17.72699558085135,0.9,107228.4,12.8,66.0,59.45236104685133,17.19018946381778
296,296_10,SE,,Mälaren Svinsundet,59.40143196971167,17.512863902432578,0.9,107228.4,12.8,66.0,59.45236104685133,17.19018946381778
296,296_11,SE,,Mälaren Ulvhällsfjärden,59.3662284356943,17.053791678517054,0.9,107228.4,12.8,66.0,59.45236104685133,17.19018946381778
296,296_12,SE,,Mälaren Västeråsfjärden,59.58281593719907,16.550979462000704,0.9,107228.4,12.8,66.0,59.45236104685133,17.19018946381778
297,297_1,SE,,Malåträsket,65.16733130714725,18.765630863961515,305.3,692.02,,37.9,65.1955378405383,18.687486570064866
298,298_1,SE,,Malgomaj Huvuddelen Av Sjön,64.71485165103522,16.266365636431868,343.6,10213.19,,117.0,64.7568310347387,16.206526427258463
298,298_2,SE,,Malgomaj Maksjön-Delen,64.66920741005245,16.47498601046781,343.6,10213.19,,117.0,64.7568310347387,16.206526427258463
299,299_1,SE,,Malmagen,62.58561668847576,12.195563161752428,782.0,250.59,,,62.60019630221864,12.162951658514682
300,300_1,SE,,Malmlången (Karldalssjön,59.42030457074775,14.680827357418952,147.8,666.57,9.3,28.0,59.46634196583544,14.716948331979507
301,301_1,SE,,Mårdsjön Nr 2,63.70495416678322,16.056362349759468,254.2,253.34,3.8,16.0,63.718394584331016,16.019430159190552
302,302_1,SE,,Marman,61.24096328592001,17.01003363844717,38.3,1766.69,,26.9,61.2371928506223,16.933571613249615
303,303_1,SE,,Marmen Sörforsviken,62.31131601102591,17.167357107103225,19.7,708.77,12.6,40.0,62.30978844562634,17.083005626684777
304,304_1,SE,,Marsjön,58.80883339286397,12.19208731641297,174.5,353.65,6.4,40.7,58.81389544543577,12.229940732415374
305,305_1,SE,,Medingen,62.38926249741204,15.183523251738995,254.7,210.07,,,62.38715777095386,15.153918537926325
306,306_1,SE,,Medstugusjön,63.5236145764384,12.39323427233195,536.1,817.01,7.5,26.0,63.53953803987328,12.355542099305083
307,307_1,SE,,Mellan Fryken,59.612094208949635,13.312035266225386,62.2,4640.39,,120.0,59.72234249665137,13.19898473575387
308,308_1,SE,,Mellansjön (Nordanedesjö,62.50936652889831,16.375286946496924,186.3,567.65,8.8,27.0,62.53559551904107,16.420919183086617
309,309_1,SE,,Mellansjön (Nr 2),62.31352239540986,15.678740770064309,315.2,118.05,,,62.30862311614121,15.690692445143965
310,310_1,SE,,Mellansjön (Nr1),62.41761462472371,14.991748818689132,259.7,558.46,4.7,16.0,62.4296879402274,14.969821559241998
311,311_1,SE,,Mellan-Svan,59.185841664985524,12.554999848128706,92.0,340.25,,17.0,59.18447229597651,12.536241442289892
312,312_1,SE,,Mjörn,57.87225704847367,12.444778581113049,58.2,5425.94,,3.0,57.90035433694416,12.409346236686288
313,313_1,SE,,Mjuasjön,56.44314251525448,15.316567269948333,125.1,24.93,2.0,3.6,56.44054359798274,15.310484062246232
314,314_1,SE,,Möckeln,56.664863581935144,14.121940716708215,136.4,4586.27,2.8,10.0,56.651589642109045,14.171183205952834
315,315_1,SE,,Möckeln,59.28932191429808,14.497917666010913,89.3,1790.24,11.5,25.8,59.293893754724685,14.514933035344026
315,315_2,SE,,Möckeln Södra Delen,59.26652937983608,14.463718568140944,89.3,1790.24,11.5,25.8,59.293893754724685,14.514933035344026
316,316_1,SE,,Mögreven,59.915540852094544,14.332649408545569,202.2,214.3,,,59.93019176646531,14.307884532888355
317,317_1,SE,,Morasjön,59.18736916512035,16.90747708785001,30.4,16.22,,,59.192455050821266,16.909835582955488
318,318_1,SE,,Morjärvsträsket,66.08201063596862,22.73504343051863,27.6,866.06,,,66.10965069538152,22.758323751678386
319,319_1,SE,,Munksjön,57.78120969131252,14.169297299380958,89.1,83.81,9.0,20.4,57.77233975155642,14.164994980127684
320,320_1,SE,,Munsvattnet,64.27099078005398,14.427998747349749,524.4,58.86,,,64.26915632675997,14.443952409749462
321,321_1,SE,,N. Bullaresjön,58.877134445126174,11.536356937308701,39.2,684.6,20.6,37.5,58.838112046981315,11.558753147051945
322,322_1,SE,,Näckten,62.91180589471008,14.569372517092136,325.0,8256.83,15.5,44.0,62.84173491736209,14.629185358069275
323,323_1,SE,,Naimakkajärvi,68.66235778194739,21.62372721414204,399.5,320.7,,,68.66703903826708,21.581418321011345
324,324_1,SE,,Näldsjön,63.34601173809085,14.241947070777298,302.1,4153.8,,31.0,63.385232068090716,14.252516517826017
325,325_1,SE,,Närsen,60.28758866403535,14.45479927192777,300.2,977.98,,,60.28801841841727,14.402711631067058
326,326_1,SE,,Nässjön,61.259438917823516,14.057090042684713,239.2,190.15,2.6,15.0,61.25944947064464,14.100331006753025
327,327_1,SE,,Nästelsjön,62.548704358826036,14.476394199954033,353.6,690.36,,27.2,62.577033387714515,14.46151098413763
328,328_1,SE,,Naujaure Vaukadelen,65.9971513837773,17.911986966581328,420.7,836.7,,8.0,66.0093055966293,17.933677233497328
329,329_1,SE,,Naustajaure,65.58649236166534,18.179902637379342,414.8,1594.47,5.9,16.0,65.619920880781,18.143819304187467
330,330_1,SE,,Naustajaure,66.3780449117911,19.27831232169493,460.6,744.37,,,66.35475435321446,19.321923951320127
331,331_1,SE,,Nautijaure,66.86271359855054,19.249238357366803,345.4,347.12,,,66.8801006331155,19.223477654110255
332,332_1,SE,,Nedre Boksjön,65.5472146724217,16.11587369799662,464.6,1521.77,29.7,77.0,65.58713388176689,16.03934229192078
333,333_1,SE,,Nedre Gautsträsket,65.5720969451155,17.490762054677774,341.5,1041.25,2.8,14.7,65.60056096599682,17.46345173216216
334,334_1,SE,,Nedre Gryten,58.8739400724412,15.363809639781028,99.4,81.48,,4.0,58.8816173638153,15.35964476379287
335,335_1,SE,,Nedre Hillen,60.13115945264095,15.307637012870108,137.9,274.16,,,60.13927500254189,15.28270498553245
336,336_1,SE,,Nedre Lillsjön,65.0312797780436,15.7645963585473,439.4,5.76,,,65.03088184583325,15.766144168456481
337,337_1,SE,,Nedre Särvsjön,62.603838583158144,13.201638304784298,630.6,257.41,,,62.615254374227206,13.173725966195706
338,338_1,SE,,Nedre Vättern,59.77665429675627,15.646887151392857,90.4,486.27,5.6,17.6,59.805544365291254,15.676645762589228
339,339_1,SE,,Noen,57.934679041032794,14.744080414146126,184.0,736.1,7.6,25.0,57.98150362722424,14.728001088617615
340,340_1,SE,,Nömmen,57.56675830881338,14.852407766529733,220.0,1533.38,4.7,18.0,57.53443917639558,14.85153016658433
341,341_1,SE,,Nordmyresjön,60.16775808218239,16.860317586500223,56.4,67.84,,,60.16287597034094,16.86851006274899
342,342_1,SE,,Nordsjön,59.873071612748994,11.977531601941415,125.3,79.69,6.5,13.0,59.87970389302927,11.983369657893993
343,343_1,SE,,Nordsjösjön,63.18764789124751,16.99915695535043,92.9,169.85,,,63.19827117728722,16.99273929015887
344,344_1,SE,,Norra Dellen,61.85723106247481,16.6213219088261,43.4,7987.09,18.1,67.0,61.88289672314508,16.688341673767056
345,345_1,SE,,Norra Hörken,60.033913521367666,14.922494591722023,255.2,1245.76,14.4,44.0,60.066446986315306,14.890925971707315
346,346_1,SE,,Norra Kornsjön,58.89874621619579,11.670038781009435,140.8,548.26,8.6,31.0,58.91148471384494,11.660047454892593
347,347_1,SE,,Norra Lisjön,59.704960996616094,16.063240864173952,61.5,74.39,,,59.70670397884156,16.074555865144376
348,348_1,SE,,Norra Lötsjön,61.06345053337534,12.768586514877171,417.2,168.03,3.1,14.0,61.04898404865051,12.789181960858418
349,349_1,SE,,Norrsjön,59.95852759555778,18.348589096727004,18.7,187.88,4.4,10.1,59.94230240925741,18.358759965326072
350,350_1,SE,,Norrsjön,57.11037374141426,15.140118406094444,199.3,331.58,2.8,4.5,57.121004876559766,15.144090992351135
351,351_1,SE,,Norrsjön Löa Norrsjön,59.8012362353048,15.150456704005872,96.4,295.26,,8.0,59.815073359441456,15.116937118105275
352,352_1,SE,,Norrtjärn,62.107624614507294,16.674767828707882,127.2,9.71,,9.0,62.105721112254095,16.670768957942265
353,353_1,SE,,Norsjön,64.94071079385571,19.378083021762713,290.5,1617.57,,11.0,64.90412650265881,19.41216871422107
354,354_1,SE,,Ö Marssjön,65.02707705476635,15.526315113850634,534.0,529.93,,,65.02214370199982,15.466520522378936
355,355_1,SE,,Ockern,63.685853867296366,14.665906736690456,300.2,256.83,,22.5,63.69803409877848,14.655074294012197
356,356_1,SE,,Ockesjön,63.27823860745742,13.861174360113823,299.8,794.74,,16.0,63.27737281913974,13.790622536821607
357,357_1,SE,,Offertjärn,63.1422698593639,17.745284850054215,15.4,4.41,,,63.14338829440446,17.747342513715598
358,358_1,SE,,Öjaren,60.672641063110134,16.838180540170708,71.3,1952.62,3.1,10.0,60.71967225517499,16.856828596645613
359,359_1,SE,,Öjarssjön (Öjarn),63.931287776712715,15.07859064403209,434.3,519.95,,,63.95663359540882,15.057726849675554
360,360_1,SE,,Öjen,60.76886552162326,13.879427648359862,296.1,1512.08,,,60.76945096027761,13.877522357210685
360,360_2,SE,,Öjen Bysjön,60.80244032896533,13.879430966382266,296.1,1512.08,,,60.76945096027761,13.877522357210685
361,361_1,SE,,Öjönsjön,62.83555812823877,12.66563388955331,848.9,216.51,,,62.849095198783424,12.67471845521166
362,362_1,SE,,Öljaren,59.15882435686988,15.954258627445034,24.1,1781.7,,,59.13455518025544,16.022530190350434
363,363_1,SE,,Olofssjön,59.89629275401151,14.961170445721114,153.0,192.68,,,59.90473795506492,14.946852718949918
364,364_1,SE,,Oltokjaure,65.7466951239515,15.50763734700264,483.0,408.69,,,65.74199408185916,15.492414141817298
365,365_1,SE,,Ömmeln,59.12551128065547,12.538704371994914,122.7,681.14,,24.5,59.13138302662054,12.49648955315654
366,366_1,SE,,Önn,58.17852851670692,16.381858348394214,34.6,162.98,,,58.1796741828898,16.369708015091145
367,367_1,SE,,Oppäsen,59.57010848483605,15.581519517252863,63.2,411.37,2.9,8.5,59.58580230487586,15.604195501620955
368,368_1,SE,,Öresjö,57.760398511435795,12.942156172944488,133.0,632.45,,30.5,57.7875324372447,12.978793979271316
369,369_1,SE,,Oresjön,61.165759452459156,15.134954342477894,200.2,1256.7,,29.0,61.14857820073935,15.177985385585375
370,370_1,SE,,Örken,57.09206388462814,15.017880719961187,188.2,2328.08,7.4,38.0,57.1375217302783,15.006221114631222
371,371_1,SE,,Ormsjön,64.33932492521659,16.112374191674483,266.4,2724.76,7.8,26.6,64.38910104450305,16.04078369555235
372,372_1,SE,,Orrmosjön,61.83742912282328,14.117491377263207,433.4,886.33,,,61.807978329673674,14.134086752137762
373,373_1,SE,,Orsasjön,61.01546591782703,14.578008095212336,162.1,5187.0,,97.0,61.082051639944595,14.552510347904974
374,374_1,SE,,Orsjön Södra Delen,61.56549226092478,16.350773670586992,113.9,3004.01,,17.0,61.61198657822643,16.308877323107307
374,374_2,SE,,Orsjön Tevsjön-Delen,61.65571405655949,16.210818151015406,113.9,3004.01,,17.0,61.61198657822643,16.308877323107307
375,375_1,SE,,Orten,62.256548951497855,13.83070787557431,401.1,320.7,,23.0,62.27744006686686,13.814295159532108
376,376_1,SE,,Orten Ulften,62.41851577310939,13.078358582894795,494.8,209.34,6.4,19.0,62.40814299238169,13.080379576119508
377,377_1,SE,,Örträsksjön,64.10797133426804,19.017946036326997,171.0,721.11,22.3,59.5,64.14356590380471,18.957725231628125
378,378_1,SE,,Osbysjön,56.348025036142886,13.997952557154766,71.7,483.59,,5.8,56.35285939842815,13.985839869874749
379,379_1,SE,,Öster-Noren (Ö Norn),63.43599725720947,12.789888895010268,398.3,469.2,9.0,19.7,63.45173895654907,12.781805967910381
380,380_1,SE,,Östersjön,59.58215635751549,14.265654230454226,128.1,904.9,,16.8,59.60373293412997,14.283796546356607
381,381_1,SE,,Östersjön,59.68847836083075,16.19556344646402,55.4,121.32,,,59.69688130822913,16.196710025931363
382,382_1,SE,,Östra Lägern,57.84289250934339,15.207810082862931,197.9,1526.52,,,57.82461302669127,15.161476067383493
383,383_1,SE,,Östra Öresjön,57.463682245951716,12.681992546007534,58.3,782.29,,17.0,57.44202431296498,12.671138059637963
384,384_1,SE,,Östra Ringsjön,55.87356306193404,13.498992758634305,54.2,2462.69,6.2,16.4,55.868565777248264,13.549970867791513
385,385_1,SE,,Östra Verbosjön,65.34521348600875,18.212479294681884,387.4,300.68,,,65.35534930416544,18.18931175286452
386,386_1,SE,,Ottsjön,63.19162542571078,13.13661037321203,494.5,1537.18,10.3,31.0,63.20789853803605,13.04680247565201
387,387_1,SE,,Ottsjön,63.70729173520571,14.950043957177334,311.1,753.33,8.9,35.0,63.728231018170845,14.869176473552443
388,388_1,SE,,Över-Röversjön (Röversjö,62.89438203169641,13.232943861455876,643.4,102.05,,,62.89829505090168,13.213035242667642
389,389_1,SE,,Överstjuktan,65.69968749109492,16.25657918231311,491.7,2298.46,20.3,51.0,65.76310869842183,16.173082174885025
390,390_1,SE,,Överuman Delen Strimasund-Utloppet,66.02294770649607,15.011269973192327,524.4,8451.52,20.5,78.8,66.07115441746903,14.8181840285882
390,390_2,SE,,Överuman Stora Umevattnet,66.10141995511655,14.654991241581413,524.4,8451.52,20.5,78.8,66.07115441746903,14.8181840285882
391,391_1,SE,,Övre Åsunden,57.67099113296819,13.273793840469084,164.6,3256.47,8.4,39.5,57.70107186995953,13.346130881362708
392,392_1,SE,,Övre Boksjön,65.60567846394157,15.938062576112575,474.9,1078.88,24.3,67.0,65.65151997089714,15.850001800045291
393,393_1,SE,,Övre Fryken,59.87024033127206,13.145192925364354,62.5,4165.13,,93.0,60.00116458978259,13.10672564824063
159,159_2,SE,,Övre Hedesundafjärden,60.345433364745354,17.052960937883604,51.9,2983.6,,1.0,60.30835554759971,16.992493998776045
394,394_1,SE,,Övre Jovattnet,65.72499828925591,14.706203111240768,486.7,480.26,,,65.72073822306322,14.653492121667904
395,395_1,SE,,Pålkemjaure,66.36299923809659,21.62369438351937,242.9,173.58,,,66.37332965633219,21.60509573653121
396,396_1,SE,,Parkijaure,66.74480651748313,19.20480161151207,297.1,2094.93,,34.0,66.75264759620539,19.123289268674476
397,397_1,SE,,Peuraure,66.77122948574224,18.14119373385425,443.1,1791.96,,,66.79160926861891,17.965617094584303
398,398_1,SE,,Piertinjaure,66.58753868455548,19.123882919601442,372.2,282.09,,,66.59412673928784,19.079946701314995
399,399_1,SE,,Prästtjärn,62.995431071658125,18.170791552941072,14.5,8.59,,,62.9951265105841,18.16871472003852
400,400_1,SE,,Puottaure,66.19193791290502,20.253153820125004,296.8,25.34,,,66.19649427635888,20.248459826911603
401,401_1,SE,,Purkijaure,66.63055227767148,19.58054493485782,272.4,1839.07,,16.0,66.6277973817289,19.503451334152345
402,402_1,SE,,Råbelövssjön,56.07699429503995,14.204377124017743,2.1,626.53,5.3,11.0,56.09956415014009,14.22916565067973
403,403_1,SE,,Rådasjön,59.999653718313105,13.59288583847804,124.0,1099.04,22.8,83.0,59.985169857241445,13.629809683289603
404,404_1,SE,,Rämen,60.31883834531019,15.200003428586934,245.9,747.81,,,60.30309824321619,15.17979757868855
405,405_1,SE,,Rammsjön,56.99916958451462,12.890963455860945,113.8,39.39,,,57.003317614495536,12.899990221245053
406,406_1,SE,,Ramsjön,57.84333535863838,14.424468965197232,221.7,148.14,7.7,19.0,57.8580681391233,14.429716986143042
407,407_1,SE,,Randijaure,66.65786675613481,19.399972597977712,284.1,5054.99,5.4,31.1,66.71577692694528,19.319162669995112
408,408_1,SE,,Ränken,59.76805341712492,12.31362362386936,87.6,1459.64,18.4,34.0,59.73358362609222,12.312960483458635
409,409_1,SE,,Rännögssjön (Rönnösjön),63.64978714419104,13.816592284978961,325.6,304.65,3.8,16.0,63.66274965811258,13.779397674169587
410,410_1,SE,,"Ransjön, Nedre",62.18757874088426,13.859800176565464,400.7,215.84,5.2,19.0,62.20609065593981,13.855530795997058
411,411_1,SE,,Rappen,66.48109919468726,17.70819321644779,488.5,2426.62,,35.0,66.40703436246166,17.78114259550162
412,412_1,SE,,Rasjön,57.56743216085358,13.891602649644756,243.3,389.07,5.2,16.0,57.58559513386801,13.902648652496591
413,413_1,SE,,Rätan,62.48659399155454,14.62463824104181,350.5,848.5,7.5,23.2,62.487555182737175,14.52725923960349
414,414_1,SE,,Raukasjön,64.89467478268651,14.603892372722333,511.5,728.82,,,64.91556161131652,14.537094694917624
415,415_1,SE,,Regnaren,58.89794730227862,15.822516495816435,51.2,843.96,4.3,11.4,58.88953889611994,15.777627856571813
416,416_1,SE,,Renåsjön (Renåvattnet),63.975424891057294,15.263056223527206,295.6,355.01,,,63.999719358927884,15.240634256628299
417,417_1,SE,,Rengen,64.06454684601454,14.113263344198062,341.0,2143.44,21.0,70.0,64.08982054773956,14.003651797371031
418,418_1,SE,,Revsundssjön,62.81403980467244,15.353408851703676,288.9,7303.6,,20.0,62.847139752069694,15.243038884157261
419,419_1,SE,,Riebnes,66.40320208300493,17.326661265185052,509.8,6294.53,,42.0,66.504042026898,17.134710684921668
420,420_1,SE,,Rocksjön,57.770689267828516,14.182210208812952,89.1,32.28,4.8,11.3,57.773957633339315,14.188793589518772
421,421_1,SE,,Rogsjön,60.71269852816214,15.58988828301781,155.8,1781.15,17.2,65.0,60.73156066282036,15.592136405033383
422,422_1,SE,,"Röjden (Rögden, Stora)",60.390809080592675,12.624790000678063,280.0,1562.47,,,60.416060587994906,12.524046387385326
423,423_1,SE,,Rörsjön,64.94317296941306,14.151081495702437,545.6,77.33,,,64.94988467918685,14.140834354717857
424,424_1,SE,,Rörvattnet,63.962071672136965,14.074750219892984,365.5,533.21,4.3,33.9,63.95641051046841,14.014277878166931
425,425_1,SE,,Röströmssjön,64.26670762578364,16.135092414348648,261.2,1044.55,5.1,20.2,64.21131713740303,16.233429044242826
425,425_2,SE,,Röströmssjön Södra Delen,64.21267973491076,16.21682517460465,261.2,1044.55,5.1,20.2,64.21131713740303,16.233429044242826
426,426_1,SE,,Rotsjön,59.57864918403506,15.80957074130299,68.1,12.07,,,59.580482659659616,15.807945069223669
427,427_1,SE,,Rottnen,56.73741465040673,15.172384623890107,148.9,3233.72,4.5,18.0,56.74588372187059,15.11137070549626
428,428_1,SE,,Roxen,58.51288948544768,15.972290533822123,33.5,9450.47,4.7,8.5,58.50218319006336,15.674942884703766
429,429_1,SE,,Rudusjön,60.17593050423928,16.47229517772301,67.6,89.27,,,60.176329640786605,16.45502764427985
430,430_1,SE,,Runn,60.468223057912496,15.589517901043122,107.4,6318.84,,27.0,60.532822219826684,15.665141921684949
431,431_1,SE,,Ruokojärvi,66.63111701015535,23.272116545484575,155.6,95.56,,,66.61888451613248,23.298239418289917
432,432_1,SE,,Rutajärvi,66.0173808648527,23.51162637811358,45.8,137.38,,,66.02200949880944,23.525438051761217
433,433_1,SE,,Ryven,57.96910961050343,16.39066375766756,30.4,127.23,10.7,28.0,57.978804017714225,16.357567759179794
434,434_1,SE,,Saddajaure,66.41166913054548,18.32801348131761,431.1,2037.14,,,66.40860194886369,18.206928998509294
435,435_1,SE,,Såduggen,57.99360477185756,16.310579195200017,53.2,89.91,,,58.00154348808262,16.286787151435757
436,436_1,SE,,Sädvajaure,66.43962528631384,16.83038170409014,476.5,3984.12,23.7,120.0,66.47139446289992,16.52296227393489
437,437_1,SE,,Saggat,66.87332051064986,18.21391028699839,302.7,3360.86,,83.0,66.88841516074443,17.927969566017975
438,438_1,SE,,Saittajärvi,67.35478138520944,22.284184863092374,209.8,349.43,,,67.34578267760202,22.26174563218318
439,439_1,SE,,Salen Södra Delen,56.801626522386215,14.581700722101125,142.0,1792.73,2.3,5.6,56.83065027107361,14.560726976761167
440,440_1,SE,,Sällsjön,63.23762259339806,13.693929258693375,395.1,464.12,8.4,25.3,63.20709005669539,13.704498711190245
441,441_1,SE,,Sandsjön,65.24050172583672,17.689142876422377,326.4,690.76,,,65.22505356766082,17.70699679881288
442,442_1,SE,,Sandvikssjön,63.59208963075042,14.722846572566972,284.0,1208.16,8.5,42.0,63.6176635417524,14.728137433832309
443,443_1,SE,,Särnasjön,61.6614292032011,13.240191133668718,422.5,559.74,,,61.69079829496901,13.159097679335106
444,444_1,SE,,Satihaure,67.50461329175813,18.44881785452374,451.0,6840.25,,,67.46200746492222,18.778796568010605
445,445_1,SE,,Sautusjärvi,67.85804587990498,20.63990942287239,324.4,2417.7,,,67.86174490961044,20.7359021012692
446,446_1,SE,,Sävsjön,57.563803757350264,14.610697992074599,308.6,30.18,2.1,3.7,57.567961546196244,14.60879275868277
447,447_1,SE,,Seckan,60.722548320497054,15.87472999276967,120.9,37.67,,,60.727895927889,15.887225142528013
448,448_1,SE,,Sidsjön,62.3778353176179,17.279766422670217,68.4,34.31,3.0,13.6,62.37309399345566,17.27591100906851
449,449_1,SE,,Siksjön,64.32270509728689,17.723638274023642,395.7,452.41,,,64.32950768421412,17.77597116882007
450,450_1,SE,,Siljan Österviken,60.747279625815075,14.961627250429697,161.6,29075.69,,120.0,60.86903580988566,14.795728068531346
450,450_2,SE,,Siljan Rättviken,60.88232672478141,15.03171883449161,161.6,29075.69,,120.0,60.86903580988566,14.795728068531346
450,450_3,SE,,Siljan Saxviken,61.002604630058265,14.555582938383099,161.6,29075.69,,120.0,60.86903580988566,14.795728068531346
450,450_4,SE,,Siljan Storsiljan So Sollerön,60.89825419889449,14.736548664884893,161.6,29075.69,,120.0,60.86903580988566,14.795728068531346
450,450_5,SE,,Siljan Västersjön,60.91892181784941,14.53305227584947,161.6,29075.69,,120.0,60.86903580988566,14.795728068531346
451,451_1,SE,,Simmelsjön,59.99506656026798,15.122434100969222,292.7,145.53,6.0,19.0,59.974546977688284,15.110689107984374
452,452_1,SE,,Skagern,58.986244018777846,14.112138404968569,68.7,13141.76,26.8,72.0,58.9859870776068,14.278549443530771
453,453_1,SE,,Skalka,66.79805502188454,19.05510327211526,296.7,4876.64,,30.0,66.84958793381143,18.851354846573347
454,454_1,SE,,Skalmsjösjön,63.50622295485445,17.768324811796806,162.8,49.91,,,63.51151362182029,17.74562338511371
455,455_1,SE,,Skålsjön,62.634669280757066,14.201956598204069,437.6,97.1,3.0,13.0,62.64171107969503,14.173540287446539
456,456_1,SE,,Skärfajaure,66.44842468789831,17.919218342611337,451.9,1271.25,,,66.49053919745333,17.8427438191678
457,457_1,SE,,Skattungen,61.19138141748084,14.923733435232554,200.2,1940.07,,52.5,61.19300438287821,15.022288832715265
458,458_1,SE,,Smågan,61.0442178488085,13.492450875369606,478.7,120.06,,,61.055324647591306,13.492046935225964
459,459_1,SE,,Södertjärn,62.104197258826886,16.663179136899764,130.7,23.86,,5.0,62.10185558546217,16.662443038577443
460,460_1,SE,,Södra Barken,60.018010287975514,15.75743559793097,100.6,1388.6,,,60.02433894189717,15.651337719443177
461,461_1,SE,,Södra Dellen,61.756450326919655,16.859507946232295,43.4,4988.07,24.0,53.0,61.807229338557825,16.70405270975479
462,462_1,SE,,Södra Hörken,60.02746499706674,15.039794386777585,257.9,800.06,8.6,43.2,60.0388852110391,15.030390110240662
463,463_1,SE,,Södra Lisjön,59.671651797481054,16.067244852114445,58.2,237.77,3.3,8.7,59.684362671315284,16.070292404867306
464,464_1,SE,,Södra Lötsjön,61.02294088268531,12.83280067234145,423.0,144.0,5.9,12.0,61.01047408784042,12.849636641257147
465,465_1,SE,,Solgen,57.54431212307276,15.11468491748163,195.5,2150.46,5.4,20.0,57.559325690497296,15.148591377019883
466,466_1,SE,,Sommen,58.146912527321014,15.040547241530021,147.1,12971.2,16.7,53.0,58.00613024830297,15.201151374986756
467,467_1,SE,,Sörabysjön,57.046972503875814,14.872526488198199,173.0,265.96,2.6,3.7,57.04132515197713,14.886967056128814
468,468_1,SE,,Sösjön,62.74777053057685,15.498821528571252,384.6,169.26,,,62.764174574472285,15.479125622260433
469,469_1,SE,,Sottern,59.014646710824955,15.540418548940027,72.1,2764.57,4.3,16.0,59.03272122210031,15.484838312923312
470,470_1,SE,,Soutujärvi,67.43303483632687,21.057038385255456,378.8,456.75,,,67.42610481501266,21.092797552266067
471,471_1,SE,,Sporrsjön,63.732442218766714,15.806601375150121,276.1,936.8,0.7,5.0,63.75683051699133,15.755810849705398
472,472_1,SE,,Stamseleviken,63.692051686522916,15.886245476405497,273.5,670.02,,,63.71853008625296,15.793317599953182
473,473_1,SE,,Stavsjön,62.32839940027404,13.759407484968708,401.1,141.84,,35.0,62.33914204237873,13.766064259950769
474,474_1,SE,,Stensjön,57.49552167305552,12.170578136654827,11.4,289.04,12.7,21.0,57.49133527674258,12.2019714199444
475,475_1,SE,,Stensjön,57.65524253945528,12.042604971794576,49.4,38.73,4.4,10.6,57.659160161595985,12.04728837874579
476,476_1,SE,,Stensjön Vid Gränna,58.06563931700749,14.607527618124598,187.9,19.17,,,58.06938928216479,14.604632013900764
477,477_1,SE,,Stensjön Vid Huskvarna,57.74663400664055,14.376936538988843,212.8,317.75,,10.0,57.73868978476242,14.384822923215799
478,478_1,SE,,Stentjärn,60.174900264821716,14.714210270617333,276.6,6.14,,,60.17450875273865,14.714797878470996
479,479_1,SE,,Stödesjön,62.375063780175125,16.863946156439518,51.5,1618.68,22.7,66.0,62.3933849240532,16.70324986931417
480,480_1,SE,,Stora Arksjön,64.6478946739947,15.696351007757336,355.7,866.58,5.2,14.4,64.68579805413185,15.543475297506694
481,481_1,SE,,Stora Avlången,60.011282369842405,15.116541680817287,281.0,312.6,6.2,28.0,60.000815558187014,15.14362517399319
482,482_1,SE,,Stora Bastuträsket,65.01784542162996,17.70081003425738,265.2,341.46,,,65.02282788681062,17.665013922238362
483,483_1,SE,,Stora Björken,59.12746326957555,14.517019888572232,93.3,428.9,7.1,21.0,59.15585417986914,14.48301217157075
484,484_1,SE,,Stora Dysjön,61.092923057370896,12.75333059667463,430.9,39.03,,,61.09849021771572,12.747447226308593
485,485_1,SE,,Stora Färgen,56.98589873283213,13.33433841836658,134.0,624.25,3.5,10.0,56.96048643258124,13.34133248784582
486,486_1,SE,,Stora Flat,59.617798613277785,11.959657577130212,183.2,81.35,,10.0,59.626943779201284,11.953841814695659
487,487_1,SE,,Stora Hullsjön,62.55283449476246,16.63620334213056,301.2,510.35,,,62.5322992043887,16.667000907336575
488,488_1,SE,,Stora Kloten,59.89384692067606,15.286187571081317,266.4,486.75,7.1,36.0,59.86928240942259,15.275434927921218
489,489_1,SE,,Stora Kvammarn,64.94533909705063,19.307959086049067,293.0,1052.63,,19.3,64.96293254995929,19.194822515710214
490,490_1,SE,,Stora Laxsjön,62.74305356492183,17.211658151602972,268.1,1132.7,11.4,31.2,62.77827152648408,17.207514080305938
491,491_1,SE,,Stora Le,59.325414383383226,11.843679465438523,104.0,13302.42,,55.0,59.236425602790824,11.866879326946288
492,492_1,SE,,Stora Lindessjön,59.58735094293687,15.231272873325041,61.0,108.23,3.2,8.0,59.58463557400776,15.222647645766155
493,493_1,SE,,Stora Lulevatten,67.03040126299018,19.78171877449358,372.1,16159.99,,28.0,67.15485787404124,19.412029732567902
494,494_1,SE,,Stora Nätaren,57.81615659380776,14.530171475593276,252.3,743.93,4.2,16.7,57.80157976893035,14.55804408974892
495,495_1,SE,,Stora Raijan,64.62067007741274,15.376249287741716,366.1,564.83,3.9,14.8,64.6343883099011,15.382318698023012
496,496_1,SE,,Stora Rängen,58.275782711524634,15.736167855865896,84.9,1086.2,4.9,27.0,58.26186285738776,15.706347968289245
497,497_1,SE,,Stora Ransaren,65.17704008346088,15.073835866801932,594.3,2809.8,21.1,59.7,65.24210154921113,15.009759703184312
498,498_1,SE,,Stora Sjougden,64.53512787156669,15.085258999424596,452.5,3021.92,9.2,33.0,64.57281475220094,15.010896218736217
499,499_1,SE,,Stora Skeppträsket,65.18566686490279,18.91979746292391,309.4,1136.27,,32.1,65.21085557778801,18.82000739831775
500,500_1,SE,,Stora Tjulträsket,65.96191016575972,16.06788417567234,542.0,521.17,21.2,38.0,65.9599012484781,16.00147584808518
501,501_1,SE,,Stora Vällan,60.576275388084696,15.585876380195245,180.1,245.6,2.4,8.0,60.588954658161526,15.563708680014923
502,502_1,SE,,Storavan,65.67401098926366,18.14330964468343,420.3,18227.67,7.1,21.0,65.71756409540171,18.246846811724467
15,15_2,SE,,Stor-Blåsjön Lilla Blåsjön-Delen,64.75158108980791,14.187605561990361,448.7,928.54,,72.0,64.85590236225794,14.224444447484531
15,15_3,SE,,Stor-Blåsjön Stora Blåsjön-Delen,64.79617919543449,14.163888914766732,448.7,928.54,,72.0,64.85590236225794,14.224444447484531
503,503_1,SE,,Stor-Burvattnet,63.977308866725416,13.33613499689728,564.1,1121.58,,,64.0062394125619,13.321727709048057
504,504_1,SE,,Stordammen,60.19494030453524,17.91527015271026,40.1,340.45,1.6,3.2,60.20305105633307,17.952104893343495
505,505_1,SE,,Stor-Degersjön,63.21971384073717,18.039299483913094,243.7,1249.35,14.6,41.0,63.181174158581925,18.080547074386228
506,506_1,SE,,Stor-Flaten (Stora Flate,60.65001736097934,14.42520151328388,292.9,1129.81,,,60.675055033008135,14.434478222664977
240,240_2,SE,,Stor-Jorm,64.62832844020816,14.109411562142178,346.2,2385.97,,,64.63130282164852,14.091813023520995
507,507_1,SE,,Storjuktan,65.32098626857382,17.33133721046071,409.6,5487.95,8.1,32.4,65.41730464978707,17.097073225207687
508,508_1,SE,,Stor-Laisan Stor-Laisan-Delen,65.73909563421955,15.338324760969359,454.0,1297.35,,36.0,65.74312330095115,15.25430124142213
509,509_1,SE,,Stor-Mjölkvattnet,63.85009900372294,13.376998699540122,552.2,1383.03,,,63.901974237358026,13.343276166854181
510,510_1,SE,,Stornien,61.599100484277315,16.76637236578633,164.7,514.35,,22.0,61.59835832154994,16.680438592071486
511,511_1,SE,,Stor-Rensjön,63.6740171471654,12.438035222731239,502.2,4837.75,,140.0,63.631905117469906,12.563452696373485
512,512_1,SE,,Storselsjön,63.74599196111548,18.131614358930378,330.1,66.21,2.6,10.0,63.75676208292604,18.11476061459149
513,513_1,SE,,Storsjön,60.61214883549239,16.905457837406367,62.4,7026.09,3.7,15.0,60.57429259101356,16.756157194902087
514,514_1,SE,,Storsjön,61.94194828050115,17.166319551820056,42.2,1271.19,5.8,32.0,61.95241907524961,17.133720033900186
515,515_1,SE,,Storsjön,62.78446870287976,13.245872993105992,566.4,2749.89,,27.0,62.80042779099949,13.131277013332813
516,516_1,SE,,Storsjön,62.87921048192347,14.468533332871901,293.4,45344.52,,74.0,63.13723891107336,14.349577256094461
517,517_1,SE,,Storsjön,63.554698788817284,17.253506216586423,238.5,1778.6,,,63.54412584484531,17.192675483728305
516,516_2,SE,,Storsjön Åssjön,63.22776681371444,14.512125052812502,293.4,45344.52,,74.0,63.13723891107336,14.349577256094461
516,516_3,SE,,Storsjön Brunfloviken,63.1446509264091,14.65467602714929,293.4,45344.52,,74.0,63.13723891107336,14.349577256094461
516,516_4,SE,,Storsjön Flaket,63.19194617430064,14.334909820222256,293.4,45344.52,,74.0,63.13723891107336,14.349577256094461
518,518_1,SE,,Stor-Skälsjön,62.81939660875643,16.853581807147275,260.2,1036.08,5.3,21.0,62.79890978551264,16.929641272100007
519,519_1,SE,,Stortjärn,63.95692604737384,15.926381902137823,301.6,42.96,,,63.95974664823134,15.918604377848583
520,520_1,SE,,Storuman,65.09457665381467,17.100697665785933,351.8,16890.16,,135.0,65.23549648197631,16.77890181639859
521,521_1,SE,,Storvindeln,65.63685742695576,17.450649395880063,341.9,5180.94,11.7,35.9,65.71829385998629,17.140550017245065
522,522_1,SE,,Ströms Vattudal,63.92587943090367,15.45846832603874,286.9,2053.93,,55.6,64.30015529364492,15.011821538328979
522,522_2,SE,,Ströms Vattudal Torsfjärden,64.32740687091757,14.957102501390168,286.9,2053.93,,55.6,64.30015529364492,15.011821538328979
523,523_1,SE,,Suddesjaure,65.90718823753136,19.124306047268902,337.4,315.67,,,65.89819926184812,19.11194031127717
524,524_1,SE,,Suijajärvi,68.21382863136728,22.758011897095134,348.6,79.52,3.4,10.5,68.2074251283608,22.76453790086789
525,525_1,SE,,Sundsjön,57.48879799369126,12.240335269396565,15.2,80.36,7.0,18.5,57.48977058059484,12.26028534385685
522,522_3,SE,,Svaningssjön,64.24093186201378,15.149004969381906,286.9,2053.93,,55.6,64.30015529364492,15.011821538328979
526,526_1,SE,,Svärdsjön,60.743337262038494,15.921709022657954,138.1,533.61,4.2,17.5,60.76269929198976,15.91854352842031
527,527_1,SE,,Syvajärvi,66.81660585710651,23.54375932479366,186.9,65.36,,,66.8229081036852,23.528037034733448
528,528_1,SE,,Tåkern,58.38651572216013,14.837212896898494,94.7,4382.98,,1.9,58.35137688283195,14.809939733115401
529,529_1,SE,,Talljärv,66.2766735911986,22.22127050219772,230.2,123.3,,,66.28499949364135,22.2333986086216
530,530_1,SE,,Tandsjön,61.74731492760395,14.665564487407668,450.7,413.19,3.6,25.0,61.725719284064084,14.707560134653248
531,531_1,SE,,Tandsjön,61.09110797966932,12.874069028681099,470.4,179.02,4.6,23.0,61.07938583706037,12.900097075191475
532,532_1,SE,,Tängvattnet,65.83096604566425,14.904517670117974,473.7,1432.05,25.0,53.5,65.83056799728348,14.815036812838727
533,533_1,SE,,Tänndalssjön,62.52762339140548,12.367658220229693,717.3,158.23,6.4,36.0,62.53335255152948,12.353213585504687
534,534_1,SE,,Tansen,60.6871481179992,15.472194921627912,138.1,80.26,,,60.68519285923722,15.454066700009932
535,535_1,SE,,Tårrajaure,66.41965634892686,19.741550438114814,360.0,432.08,,,66.4125805581403,19.727585233596322
536,536_1,SE,,Tåsjön,64.16073252044308,16.00721997038082,253.0,4474.78,,58.0,64.28382359812588,15.779683479898907
537,537_1,SE,,Teen,59.12766433528304,14.673325995435341,66.1,603.83,,,59.10946936202931,14.668311483515808
538,538_1,SE,,Tegelträsket,63.93942244418758,17.925668873394496,383.0,387.93,,,63.921950081642265,17.916868110483048
539,539_1,SE,,Tingstädeträsk,57.732372807036995,18.61414070403735,45.3,465.22,0.7,1.6,57.72820836534323,18.630750087731695
540,540_1,SE,,Tisjön,59.60584553555898,15.786372250968066,75.0,30.89,1.2,2.4,59.60225949532443,15.788625944481456
541,541_1,SE,,Tisjön (Tysjön),60.93935777434439,12.90816526044647,432.3,2690.6,,20.0,60.90928910858644,12.992688977736108
542,542_1,SE,,Tisnaren,58.945057337484634,16.080324935932982,44.3,3758.32,7.8,23.0,58.94599984129313,15.939787987614706
543,543_1,SE,,Tjåmotisjaure,66.9093138294765,18.508183285182458,296.8,1621.99,,26.0,66.90345407886906,18.437785342149215
544,544_1,SE,,Tjeggelvas,66.52376083903752,17.790858287305962,451.7,6642.18,3.4,65.0,66.61848965519887,17.56749769576139
545,545_1,SE,,Toftan,60.65624076438493,15.782436058863135,120.4,761.77,,,60.67384721856983,15.785158936598753
546,546_1,SE,,Toften,59.08417669816245,14.648944378852056,75.6,1810.7,,11.1,59.0575433133803,14.587642475762625
547,547_1,SE,,Torneträsk,68.19397864529299,19.988619068594023,342.6,32753.4,51.8,168.0,68.3375209707385,19.259304453307553
548,548_1,SE,,Torpsjön,62.48436352873553,16.24215932225789,59.4,296.98,,11.0,62.48757872862665,16.186116428523086
549,549_1,SE,,Torrön,63.89850895285286,12.97385278845616,415.7,10231.02,,108.0,63.89298587338014,12.952530002531613
549,549_2,SE,,Torrön Ängsfjärden,63.80151551618963,13.064826489050816,415.7,10231.02,,108.0,63.89298587338014,12.952530002531613
549,549_3,SE,,Torrön Norra Delen,63.95877876642824,12.845224364079092,415.7,10231.02,,108.0,63.89298587338014,12.952530002531613
550,550_1,SE,,Torrvarpen  Norra O. Mellersta Delen,59.70230121060313,14.499601143770589,175.0,2253.9,14.3,65.0,59.69815162529804,14.501083234823046
550,550_2,SE,,Torrvarpen Södra Delen,59.66679734258479,14.540909566034273,175.0,2253.9,14.3,65.0,59.69815162529804,14.501083234823046
551,551_1,SE,,Tossåssjön,62.93154846928632,13.228104282300851,764.0,111.35,,,62.933299902035415,13.2434086416218
552,552_1,SE,,Toven,57.62696893474964,16.5677682645769,4.1,68.42,,,57.639645794132505,16.57355234498287
553,553_1,SE,,Trängsletsjön Nedre Delen,61.38162158922728,13.738522288863837,422.0,3631.59,,,61.51007010481471,13.538583140450303
554,554_1,SE,,Trehörningssjön,57.68209712225123,13.671274293524743,328.1,159.44,1.4,3.1,57.68260039295312,13.685122350371088
555,555_1,SE,,Tvärsjön,57.74840032904625,12.399657756932191,97.2,95.89,17.4,34.5,57.750817984230245,12.3936354772003
556,556_1,SE,,Tyckeln,61.820439586945135,14.642358561685626,408.5,292.98,,5.0,61.82793499203607,14.59825117434309
557,557_1,SE,,Tyngsjön,60.27985078386845,13.854213622681351,313.3,272.05,,,60.27656401408108,13.88071680092296
3,3_2,SE,,Uddjaure,65.84644944307563,18.042882290467524,420.9,24714.97,,,65.98059598883587,17.724906560756857
558,558_1,SE,,Ullungen,61.38611637794062,15.823790381880547,154.4,108.39,2.2,6.0,61.391448584183685,15.813565970861104
559,559_1,SE,,Ulvsjön,61.61587728851902,14.173499765373077,583.9,43.87,,,61.60819276887445,14.173494370663459
560,560_1,SE,,Ulvsjön,62.26124525761524,16.443368081597296,373.8,125.79,4.5,11.0,62.26492584693056,16.424941559502475
561,561_1,SE,,Umnässjön,65.42350252882954,16.17149185550154,351.8,1268.85,16.7,43.8,65.45355540054524,16.055540382575757
562,562_1,SE,,Unden,58.75548629772831,14.387582013617264,117.8,9238.97,30.7,86.0,58.78114767895666,14.457777237639037
563,563_1,SE,,Uppämten,60.14090999745317,13.796743607602252,185.0,65.81,2.6,7.0,60.144697232841736,13.802816185270027
564,564_1,SE,,Ursjön,59.71129296856084,16.03699489804852,93.9,5.53,,,59.71348117078221,16.03764075180824
565,565_1,SE,,Uspen,57.77481367265354,12.396159438297502,94.6,148.29,11.6,26.0,57.76333210664983,12.403842309285997
566,566_1,SE,,Vågsjön,59.69954502338944,15.97013534283882,86.2,321.37,6.2,16.0,59.70482717533832,15.991975028125857
226,226_2,SE,,Vaikijaure,66.63134778256101,19.81998113866652,260.0,2539.92,,11.0,66.66793524903437,19.705679400294528
567,567_1,SE,,Vällen,60.03766976969058,18.347132907245648,13.9,880.44,2.8,5.0,60.034210355224296,18.326600009320426
568,568_1,SE,,Vallentunasjön,59.48101912287539,18.01920946776955,8.1,575.12,2.4,5.0,59.50555706811077,18.03725916261962
569,569_1,SE,,Valsjön,64.01985258033152,14.207410637850062,332.2,913.36,20.7,72.0,64.04363627716685,14.150418961594855
570,570_1,SE,,Vanderydsvattnet,58.16788494257743,12.41146421689847,73.2,1020.18,3.8,18.0,58.1327414625144,12.372824880553381
571,571_1,SE,,Vänern Borgvikssjön,59.34594148873751,12.974979142417991,44.4,548431.23,,57.0,58.91006072400582,13.287133117603318
571,571_2,SE,,Vänern Brandsfjorden,58.43125853608686,12.654890410880169,44.4,548431.23,,57.0,58.91006072400582,13.287133117603318
571,571_3,SE,,Vänern Kinneviken,58.57911222745338,13.243572614153573,44.4,548431.23,,57.0,58.91006072400582,13.287133117603318
571,571_4,SE,,Vänern Mariestadssjön,58.732314430574576,13.776356929991415,44.4,548431.23,,57.0,58.91006072400582,13.287133117603318
571,571_5,SE,,Vänern Vänersborgsviken,58.48071552461018,12.478922031417664,44.4,548431.23,,57.0,58.91006072400582,13.287133117603318
571,571_6,SE,,Vänern Varnumsviken,59.32030247791862,14.07516634423332,44.4,548431.23,,57.0,58.91006072400582,13.287133117603318
572,572_1,SE,,Vängelsjön,63.7054290523103,16.291977844785684,221.9,612.11,3.4,17.1,63.713731678067695,16.212243213623616
573,573_1,SE,,Vansjön,61.314763284777676,13.401749458697807,438.4,266.56,1.4,9.0,61.33867844396372,13.376030333750942
574,574_1,SE,,Värmeln,59.372282892829254,12.943215957244195,56.0,7423.05,11.4,44.0,59.536713669136724,12.916366657162147
575,575_1,SE,,Varpan,60.62827018235418,15.605251740741382,115.2,722.11,9.8,26.0,60.64968015281661,15.604383822162395
576,576_1,SE,,Varpen,61.30323139182625,16.498303855813273,52.2,769.26,,12.7,61.32903848175605,16.441808851337335
577,577_1,SE,,Väsman,60.15478227284359,15.184300717034361,154.9,3889.41,,53.0,60.185517141472744,15.073100705471544
578,578_1,SE,,Vassbotten,58.49034113023861,11.72389751513293,65.5,32.99,3.0,18.0,58.49251742890447,11.730850071840573
579,579_1,SE,,Vassijaure,68.4504260798596,18.247004446562517,461.1,618.05,,,68.43900128192014,18.20063618204992
580,580_1,SE,,Västansjön,65.73767302306601,15.168302705942745,453.1,426.68,,23.0,65.7452490599568,15.1304648416519
581,581_1,SE,,Västervattnan,62.34890015520521,12.648240569388516,751.7,321.9,,,62.35503347474302,12.613653768874705
582,582_1,SE,,Västlandasjön,59.54992095127187,15.772436938434277,49.9,493.8,2.1,5.4,59.54780771658494,15.747008189487135
583,583_1,SE,,Västra Fiskåvattnet,64.40998882029953,14.757079635352998,364.1,733.67,,,64.42398511234083,14.710482351263467
584,584_1,SE,,Västra Lägern,57.83278435743601,15.093512867746828,207.8,1090.93,,,57.81218915125633,15.076454159835365
585,585_1,SE,,Västra Laxsjön,58.9330082725069,14.631084568057664,130.2,905.59,1.6,13.0,58.9048008014329,14.643077241806873
586,586_1,SE,,Västra Marssjön,65.01688361166153,15.419730880127213,534.0,457.93,,,65.02009644975175,15.386113480984406
587,587_1,SE,,Västra Örten,59.635005661752594,13.555767845780366,71.1,895.84,,18.0,59.65933208401996,13.609442172834619
588,588_1,SE,,Västra Ringsjön,55.911656205118625,13.442184145848884,54.2,1434.82,2.7,5.7,55.89261642580719,13.472137502093513
589,589_1,SE,,Västra Styran,58.9784367584821,17.85991596217242,24.9,139.03,3.9,6.8,58.973994843424784,17.848690471911524
590,590_1,SE,,Vättern Södra Delen,57.83142967619827,14.206077302646321,89.0,187583.5,40.8,120.0,58.32936510946915,14.536069737391768
590,590_2,SE,,Vättern Utanför Hjo,58.300165184113396,14.355535534188228,89.0,187583.5,40.8,120.0,58.32936510946915,14.536069737391768
590,590_3,SE,,Vättern Utanför Karlsborg,58.52688086700189,14.56934247016297,89.0,187583.5,40.8,120.0,58.32936510946915,14.536069737391768
590,590_4,SE,,Vättern Utanför Visingsö,58.05664216149996,14.263780244177507,89.0,187583.5,40.8,120.0,58.32936510946915,14.536069737391768
590,590_5,SE,,Vättern Vadstenaviken,58.457610260334704,14.871576096075316,89.0,187583.5,40.8,120.0,58.32936510946915,14.536069737391768
591,591_1,SE,,Vattsjön,60.670586630459724,16.390107646474398,136.2,11.35,0.6,1.5,60.671329921696824,16.381493561188382
592,592_1,SE,,Växjösjön,56.86141084589858,14.810919523040916,160.7,76.86,3.4,6.0,56.86791700086499,14.810309881227617
593,593_1,SE,,Växsjön,61.397102446024334,16.403241098066424,85.6,601.27,,14.0,61.40590985486111,16.449988474282634
594,594_1,SE,,Velen,60.20906695854476,12.868562912225881,87.8,212.29,,10.9,60.18867921910157,12.881571780165816
595,595_1,SE,,Velen,58.71426531870311,14.31522041310171,120.8,265.2,,18.0,58.74064964526015,14.313056660378075
596,596_1,SE,,Venjansjön,60.835738946427476,14.11927624227397,273.7,3405.44,,,60.89693353612427,14.012209528686142
597,597_1,SE,,Vidöstern,56.978911219384365,13.984420973355414,144.2,4239.01,4.4,35.0,57.06770975933277,14.010142122862499
598,598_1,SE,,Vikaresjön,57.40317223868614,13.606159531170801,156.0,114.64,5.2,12.0,57.40990250685123,13.61499818760251
599,599_1,SE,,Vikarsjön,62.3749765862847,13.758938043130136,403.6,626.02,25.7,54.7,62.39314063085429,13.721064114947604
600,600_1,SE,,Vikern,59.50592079829766,14.963711160474316,113.7,964.91,8.4,25.0,59.493234861430494,14.918032898834111
601,601_1,SE,,Viksjön,61.345596756705234,16.000527805721525,153.8,271.39,1.4,8.0,61.344789386796805,15.960716909302448
602,602_1,SE,,Viskasjön,64.08427609262242,18.34542087030677,290.6,800.96,,,64.07443060474824,18.44216940242843
603,603_1,SE,,Visnaren,59.248126221076106,17.113447574522503,9.9,112.06,,,59.243957714561205,17.107481733614375
604,604_1,SE,,Vispsjön,64.07850770616356,17.33229292848434,297.6,609.68,3.2,16.0,64.0685518300581,17.365518296947414
605,605_1,SE,,Vojmsjön,64.86177389679926,16.743809645274073,416.8,8289.82,,145.0,65.02026266568022,16.409723147534006
606,606_1,SE,,Volgsjön,64.55006061992478,16.714534885368014,335.2,2158.73,4.7,14.9,64.60601109705084,16.6270298121609
607,607_1,SE,,Vombsjön,55.698507597794844,13.554818582923208,20.7,1190.77,,15.6,55.683971832725106,13.588191550406032
608,608_1,SE,,Vristulven,58.56219421226476,13.70148371287316,111.6,406.15,,8.6,58.56605944678555,13.724875553257727
609,609_1,SE,,Vuoggatjålmejaure,66.55585297527959,16.344978298231496,481.4,714.09,,,66.58395627067249,16.32376738323522
610,610_1,SE,,Vuolvojaure,66.35988227056565,18.596886753144787,428.9,2898.3,,,66.41005825996851,18.485404466427163
611,611_1,SE,,Ylen,57.854553586490646,14.500177437598195,252.3,603.0,,32.0,57.837147843084416,14.501664891598901
612,612_1,SE,,Yngaren,58.89254799022855,16.600260821679413,19.8,4765.73,8.6,19.7,58.851338035101776,16.587003359896492
613,613_1,SE,,Yngen,59.68876424665058,14.315986910015388,199.5,2688.56,,,59.732568942090325,14.305730905958923
614,614_1,SE,,Yraf,66.27695230336208,16.6318199919915,460.6,304.56,7.3,28.0,66.285148943112,16.608827140431874
615,615_1,SE,,Ytter-Grucken (Nedre),62.824519204995134,13.46299940484507,495.1,315.64,5.5,19.2,62.829101751323215,13.426479667961896
616,616_1,SE,,Ytter-Röversjön,62.86840966366556,13.256055804561536,616.2,213.57,8.0,20.0,62.87648480783981,13.243294041137572
617,617_1,SE,,Yttre Oldsjön,63.691504365281695,13.659573959582518,335.9,343.6,3.6,11.0,63.694975602742936,13.596787696417085
618,618_1,SE,,Yttre-Klippträsket,64.75142157649013,19.418018043950845,283.0,238.31,5.6,14.3,64.76033654013439,19.41304954480461
619,619_1,SE,,Yxern,57.65035261541341,16.146868551847945,91.6,1487.39,8.1,25.0,57.68388522947541,16.105154686497002
620,620_1,SE,,Yxningen,58.279158540692556,16.460018635858116,38.8,2847.04,27.0,75.0,58.26182693119287,16.3429791871079
621,621_1,FI,,Simpelejärvi,61.60082262945596,29.48246154946804,68.99,2073.036,8.22,28.15,61.57823,29.63492
622,622_1,FI,,"Polvijärvi, Ruunaa",63.4333290835508,30.414820778019124,139.15,317.136,2.24,7.8,63.43689,30.44229
623,623_1,FI,,"Pielinen, Nurmes",63.54181187307805,29.131392668457295,93.95,89547.439,10.06,61.0,63.27053,29.60674
623,623_2,FI,,"Pielinen, Lieksa",63.318760492441875,29.98658759980732,93.95,89547.439,10.06,61.0,63.27053,29.60674
624,624_1,FI,,Höytiäinen,62.68806446949231,29.669106540934703,87.53,28254.812,11.29,59.0,62.82979,29.65868
625,625_1,FI,,"Pyhäjärvi, Syrjäs.",62.032322250629875,29.88774200359632,79.79,24764.566,8.07,27.0,61.8972,29.95707
626,626_1,FI,,"Orivesi, Puhos",62.095063142382266,29.875902747303265,76.11,60119.35,9.16,74.0,62.22723,29.47472
627,627_1,FI,,"Porovesi, Iisalmi",63.55496558725076,27.18092699376527,86.1,2209.728,5.4147,24.97,63.54938,27.13786
628,628_1,FI,,Laakajärvi,63.83193699023338,27.89447076991009,164.69,3475.515,3.80463,25.94,63.84683,27.94101
629,629_1,FI,,"Syväri, Atro",63.37277147431395,27.987718822618763,110.28,120.78,4.51,11.72,63.38508,27.97889
630,630_1,FI,,"Ruokovesi,Pirttilahti",63.10461880474043,27.3323094139366,82.08,31723.163,9.71,75.0,62.7616,27.78259
630,630_2,FI,,"Kallavesi, Kuopio",62.89925502773385,27.731728580548193,82.08,31723.163,9.71,75.0,62.7616,27.78259
631,631_1,FI,,"Konnusvesi, Konnus",62.54890328138332,27.76981771881287,81.55,1287.145,3.19,19.0,62.52321,27.84631
631,631_2,FI,,"Unnukka, Varkaus",62.54917687010062,27.772294190094115,81.55,1287.145,3.19,19.0,62.52321,27.84631
632,632_1,FI,,"Sorsavesi, Sorsak.",62.45109293039606,27.65061246796645,98.27,5553.9,9.56,61.5,62.47527,27.55343
633,633_1,FI,,"Siitinselkä, Varkaus",62.30005208923842,27.907516373127805,76.03,56714.853,9.13,55.0,62.10826,28.38868
633,633_2,FI,,"Haukivesi, Oravi",62.110735242609465,28.606396965749415,76.03,56714.853,9.13,55.0,62.10826,28.38868
634,634_1,FI,,"Pihlajavesi, Savonlinna",61.85075144809703,28.8639635518488,75.92,72584.453,11.33,72.0,61.68081,28.67648
635,635_1,FI,,"Savilahti, Mikkeli",61.68890497920173,27.28213709321808,75.95,2535.438,5.91,30.44,61.61581,27.31381
636,636_1,FI,,"Pökkäänlahti, Ristiina",61.5008344285532,27.263562834099037,75.91,139303.449,10.8,85.81,61.3377,28.11575
636,636_2,FI,,"Saimaa, Lauritsala",61.083179556231435,28.27195898250573,75.91,139303.449,10.8,85.81,61.3377,28.11575
637,637_1,FI,,Muurasjärvi,63.47117185419593,25.33518758966722,112.55,2103.339,8.98,35.71,63.50803,25.33963
638,638_1,FI,,Saanijärvi,63.39975580124892,25.572031309810907,114.33,1266.371,1.96,6.0,63.4112,25.6014
639,639_1,FI,,Kolimajärvi,63.17553474045431,25.93829690900272,111.52,10064.73,8.61,66.31,63.27795,25.7963
640,640_1,FI,,"Kivijärvi, Saarenkylä",63.267006597784786,25.12643648604784,131.14,15401.114,8.36,43.78,63.14108,25.15975
641,641_1,FI,,"Keitele, Viitasaari",63.07193494551791,25.856606200245785,99.82,7967.636,8.83841,66.0,63.11708,25.67232
642,642_1,FI,,"Keitele, Suolahti",62.56992747133499,25.853004849745,99.8,8835.225,6.13581,46.0,62.66745,25.88276
643,643_1,FI,,Kyyjärvi,63.0555301272762,24.56513446974187,150.85,1642.83,1.59,15.5,63.06107,24.59681
644,644_1,FI,,"Pääjärvi, Karstula",62.84740823358379,24.814241386701298,144.73,2950.774,3.81,14.9,62.86382,24.7894
645,645_1,FI,,Kalmarinjärvi,62.78592165824077,25.00096427593321,130.12,711.375,5.73,22.0,62.77723,25.00065
646,646_1,FI,,Summasjärvi,62.67653695765485,25.3436980589722,108.81,2192.84,6.73,41.0,62.64635,25.37753
647,647_1,FI,,Vatianjärvi,62.468593642047296,25.920249551898724,89.3,625.067,3.67,25.64,62.49054,25.88585
648,648_1,FI,,Koivujärvi,63.448336578436624,26.224995641241033,131.12,2595.527,3.04,16.0,63.47529,26.25933
649,649_1,FI,,"Pielavesi, Säviä",63.19930240299796,26.66958713999057,102.61,16884.297,4.85582,21.74,63.11458,26.52683
650,650_1,FI,,"Nilakka, Kolu",62.97306513906578,26.725103621371115,98.2,16492.619,,34.47,62.83433,26.88573
650,650_2,FI,,Iisvesi,62.66810719802136,27.033010103232375,98.2,16492.619,,34.47,62.83433,26.88573
651,651_1,FI,,"Hankavesi, Rautalampi",62.617498002081355,26.827201492635744,96.4,1849.379,7.04,49.0,62.60128,26.78343
652,652_1,FI,,"Konnevesi, etelä",62.61657768071317,26.349216875854857,95.7,19027.597,10.61,57.12,62.6326,26.60459
653,653_1,FI,,Vanginvesi,62.56606333147733,26.242851535248754,90.61,1417.531,5.46,23.57,62.57821,26.26822
654,654_1,FI,,Ala-Kintaus,62.27850499276799,25.33797147248977,154.71,723.353,5.24,19.0,62.29049,25.36218
655,655_1,FI,,Petäjävesi,62.255461685532126,25.173250101828167,111.41,861.568,4.21,26.59,62.24227,25.19415
656,656_1,FI,,Salosjärvi,62.07572436392363,25.161965289126705,102.8,896.767,7.26,36.2,62.11099,25.17823
657,657_1,FI,,"Jääsjärvi, Hartola",61.56738161656722,26.046710247880277,92.57,8112.073,4.58,28.2,61.63101,26.13511
658,658_1,FI,,Joutsjärvi,61.518699145626094,25.879507413062942,85.87,1011.484,3.79,23.66,61.5085,25.84898
659,659_1,FI,,"Päijänne, Sysmä",61.47868094532396,25.627806491827364,78.58,86416.788,14.1369,86.0,61.61394,25.48204
660,660_1,FI,,"Vesijärvi, Lahti",60.99462322906797,25.64812600799632,81.65,10742.703,6.08641,40.0,61.09569,25.53305
659,659_2,FI,,"Vesijärvi, Vääksy",61.1760321856048,25.536214213532563,78.58,86416.788,14.1369,86.0,61.61394,25.48204
659,659_3,FI,,"Päijänne, Vääksy",61.17651768913575,25.537102889882373,78.58,86416.788,14.1369,86.0,61.61394,25.48204
661,661_1,FI,,Ala-Rieveli,61.33581188107675,26.20120323323878,78.05,1303.746,11.27,46.89,61.3035,26.1718
662,662_1,FI,,"Kyyvesi, Haukivuori",62.01270517952367,27.189455075011058,100.92,12425.773,4.39,35.25001,61.99879,27.07957
663,663_1,FI,,"Puula, Kangasniemi",61.98788430497544,26.646130842696472,94.97,32911.055,9.24,69.0,61.81975,26.70362
663,663_2,FI,,"Puula, Otava",61.65850488526655,27.066462011049733,94.97,32911.055,9.24,69.0,61.81975,26.70362
664,664_1,FI,,"Tuusjärvi, Tuustaipale",61.50824067403581,26.70155622508271,81.06,538.626,3.45,17.08,61.53513,26.72984
665,665_1,FI,,"Lahnavesi, Tuustaipale",61.50007690594924,26.70828442573602,79.95,1312.77,7.14,33.03,61.46878,26.67541
666,666_1,FI,,"Vuohijärvi, Hillosens.",61.19843923400235,26.78352697160477,76.83,8682.428,16.28,75.51,61.1853,26.71563
667,667_1,FI,,"Ylä-Kivijärvi, Jurvala",60.95447603924306,27.7609894486642,75.41,7539.295,5.26,27.0,60.98222,27.6926
668,668_1,FI,,"Ala-Kivijärvi, Ylä-Munni",60.9389994079227,27.511486225260832,75.31,918.839,4.77,18.96,60.95696,27.49398
669,669_1,FI,,"Tammijärvi, Pitkälahti",60.56586065071048,26.56322390934899,15.02,980.469,2.49,12.74,60.57804,26.54703
670,670_1,FI,,Pyhäjärvi,60.707069874324205,26.009192884854347,40.05,1310.83,21.0774,68.0,60.72314,26.01799
671,671_1,FI,,Palojärvi,60.290333531534195,24.39805125592863,43.75,168.012,3.67,10.2,60.28296,24.37174
672,672_1,FI,,Sääksjärvi,60.5093319173396,24.65378674306329,100.05,263.379,4.49,7.91,60.5093,24.66822
673,673_1,FI,,"Lohjanjärvi, Virkkala",60.19013981594493,23.981260303243463,31.85,8906.264,12.68,54.88,60.24116,23.95829
674,674_1,FI,,"Pyhäjärvi, Kauttua",61.10152840900375,22.180181366727854,45.21,15532.756,5.47,26.24,61.00108,22.29133
675,675_1,FI,,"Koljonselkä, Kuoresalmi",61.61695466473272,24.503775870327257,84.5,13404.679,6.83,59.3,61.53526,24.37048
675,675_2,FI,,"Längelmävesi, Kaivanto",61.41800915194016,24.14742934013205,84.5,13404.679,6.83,59.3,61.53526,24.37048
676,676_1,FI,,Vesijako,61.35500942093057,25.02294274528169,108.67,1662.507,7.16,36.81,61.38734,24.99372
677,677_1,FI,,"Kukkia, Puutikkala",61.32912186169734,24.618402420020367,86.88,4388.364,5.23,35.62,61.33818,24.70639
678,678_1,FI,,"Iso-Roinevesi, W-Ranta",61.20779372961418,24.5176813190816,84.47,3145.498,7.17,73.0,61.2175,24.56713
679,679_1,FI,,Haapaniemenjärvi,60.85246821661453,24.48760064670336,81.17,391.358,0.96,3.99,60.86277,24.47596
680,680_1,FI,,"Vanajavesi, Hämeenlinna",60.99915989601263,24.470170537016717,79.68,184.523,2.07,8.49,60.98723,24.46838
681,681_1,FI,,"Jalantijärvi, Sotkia",61.14651917037738,23.79187702394301,83.31,642.411,2.68,6.14,61.1616,23.75069
682,682_1,FI,,"Ähtärinjärvi, Niemiaho",62.75534039125655,24.045385937320567,153.86,4175.456,5.2,27.0,62.69768,24.06426
683,683_1,FI,,"Toisvesi, Herraskoski",62.2625950458934,23.73076193800581,98.46,2935.753,19.47,85.0,62.29424,23.73058
684,684_1,FI,,Pihlajavesi,62.321081598891936,24.26583892514776,138.94,2021.984,5.09,19.97,62.36057,24.27715
685,685_1,FI,,Kitusjärvi,62.27747653290797,24.05220891093604,117.0,49.935,,,62.28117,24.0491
686,686_1,FI,,"Visuvesi, Kanava",62.11750015861835,23.92486964721646,96.45,4609.588,6.95,61.97,62.14156,23.76352
687,687_1,FI,,"Ukonselkä, Kolho",62.13001838663325,24.507569565904543,105.72,9788.485,4.66,33.52,62.14961,24.66866
688,688_1,FI,,"Palosekä, Vilppula",62.01448399643585,24.46911202212431,96.43,2479.675,3.28071,22.18,62.02008,24.32545
689,689_1,FI,,"Ruovesi, Kauttu",61.95550020689538,24.10756239198222,96.43,4173.004,8.83,46.55,62.00877,24.14272
690,690_1,FI,,"Palovesi, Murole",61.855700740927425,23.90678609488472,95.73,4600.003,8.67,40.0,61.83197,23.81611
691,691_1,FI,,"Näsijärvi, Tampere",61.50855630879533,23.772534076284895,95.71,21047.48,14.6546,65.64,61.63179,23.75045
692,692_1,FI,,"Pyhäjärvi, Tampere",61.491503158793165,23.739716588007756,77.52,11870.818,5.49861,50.16,61.38107,23.50773
693,693_1,FI,,Jämijärvi,61.81081514711878,22.75843289240616,101.25,884.673,4.32,25.96,61.8113,22.71939
694,694_1,FI,,"Kyrösjärvi, Kyröskoski",61.77404880732342,23.05164269632524,83.53,9624.157,10.38,47.0,61.76358,23.13016
695,695_1,FI,,Mätikköjärvi,61.5122855016854,22.99768972565629,58.63,81.8275,9.48,22.05,61.50976,22.99843
696,696_1,FI,,"Sääksjärvi, Sääkskoski",61.39378704494072,22.45436579463926,49.35,3333.708,3.72,9.11,61.40742,22.37682
697,697_1,FI,,"Kuortaneenjärvi, Kuortane",62.86278948057499,23.407084557439617,76.19,70.561,,,62.87189,23.39835
698,698_1,FI,,"Lappajärvi, Halkosaari",63.25948059858901,23.63528743321785,69.89,14541.753,6.88,36.04,63.14795,23.67058
699,699_1,FI,,"Lestijärvi, Kiiskilänlahti",63.58372666954241,24.71648829737782,141.09,6468.76,3.56785,6.9,63.52496,24.77938
700,700_1,FI,,"Pyhäjärvi, Pyhäsalmi",63.681734910931326,25.99450531626044,139.93,12117.976,6.27,27.0,63.58804,25.93544
701,701_1,FI,,"Kianta, Ämmänsaari",64.88325235522667,28.93180952920478,199.39,17117.845,7.84,43.0,65.03062,29.08901
702,702_1,FI,,"Vuokkijärvi, Sankki",64.78382295353671,29.313946678316594,189.19,5274.85,5.42,24.0,64.76213,29.35428
703,703_1,FI,,"Lentua, Varajoki",64.20375539259999,29.68991794746443,168.18,7915.339,7.41,52.0,64.24473,29.60317
704,704_1,FI,,"Lammasjärvi, Kuhmo",64.13124553231037,29.550980483088452,176.08,540.274,,18.8,64.25619,29.94934
705,705_1,FI,,"Ontojärvi, Paloniemi",64.11891600166001,29.286133422722266,159.48,10456.97,5.76,29.0,64.1249,29.17042
706,706_1,FI,,"Nuasjärvi, Vuokatti",64.16163524622583,28.244101564594448,138.19,9601.102,8.52,42.0,64.18402,28.01622
706,706_2,FI,,"Rehja, Kajaani",64.22693628037284,27.787275645482424,138.19,9601.102,8.52,42.0,64.18402,28.01622
707,707_1,FI,,"Oulujärvi, Melalahti",64.39905088095699,27.651943543664338,123.0,17473.819,,,64.34099,27.69075
708,708_1,FI,,Poussunjärvi,65.79860169358552,29.31603425360528,250.59,224.932,,,65.78747,29.34757
709,709_1,FI,,Naamankajärvi,65.1039118501418,28.24632203492423,173.82,862.681,2.92,14.0,65.0947,28.27438
710,710_1,FI,,Korvuanjärvi,65.34818573630153,28.66301705144424,242.11,1533.183,6.03,37.0,65.37394,28.6574
711,711_1,FI,,"Livojärvi, Säikkä",65.98334803685822,27.96772596893579,244.02,3286.623,5.78,28.0,65.99644,28.2042
712,712_1,FI,,"Oijärvi, Matilanjärvi",65.62058086006822,25.93015545761446,90.18,2057.828,1.11149,2.42,65.63343,25.91432
713,713_1,FI,,Isojärvi,66.43500620846574,28.13110953849362,225.71,475.214,,,66.44025,28.16943
714,714_1,FI,,Ounasjärvi,68.39749995987059,23.716964796589224,287.17,703.225,6.64,31.0,68.37709,23.60163
715,715_1,FI,,Unari,67.13658051452784,25.741536798728525,180.13,2902.97,5.01,24.82,67.17248,25.71118
716,716_1,FI,,Kilpisjärvi,69.04976165958777,20.788067283820222,473.16,3732.214,19.5,57.0,69.00697,20.81596
717,717_1,FI,,"Jerisjärvi, Kutuniva",67.95012410963459,24.002080291484667,257.2,68.675,,,67.95565,23.98957
718,718_1,FI,,"Mutusjärvi, Riutula",68.9433891026116,26.806643911148516,146.39,5134.864,8.5,74.0,69.02913,26.88191
719,719_1,FI,,Solojärvi,68.83724579829011,26.789623635911184,144.81,422.271,3.99,17.64,68.844,26.7732
720,720_1,FI,,"Inari, Nellim",68.84999043513503,28.300712831382267,118.88,108191.985,14.3,92.0,69.08207,27.92452
721,721_1,FI,,Kuusamonjärvi,65.88347350528925,29.363279848208204,253.29,4748.049,3.4,17.69,65.90877,29.37611
659,659_4,FI,,"Päijänne, Tehi",61.46522954439675,25.38819106040066,78.58,86416.788,14.1369,86.0,61.61394,25.48204
722,722_1,FI,,Tuusulanjärvi,60.41678227067279,25.04273268444463,38.06,593.221,3.16,9.76,60.44144,25.05441
723,723_1,FI,,"Kuivajärvi, Saari",60.78213161304746,23.838325828148687,96.87,823.321,2.2283,9.9,60.78553,23.85964
724,724_1,FI,,"Oulujärvi,Vaala",64.55092239929625,26.824013315210152,123.03,34008.826,,,64.45078,26.96539
725,725_1,FI,,Peerajärvi,68.88332435006721,21.076366070443235,459.68,199.718,,,68.88821,21.09213
720,720_2,FI,,"Inari, selkävedet",68.95771978179226,27.69420483850995,118.88,108191.985,14.3,92.0,69.08207,27.92452
726,726_1,FI,,"Kevojärvi, Kevoniemi",69.75658942833583,27.003159303626965,75.0,102.0,11.1,35.0,69.75897,27.00079
699,699_2,FI,,Lestijärvi,63.52715425453959,24.66929623287021,141.09,6468.76,3.56785,6.9,63.52496,24.77938
727,727_1,FI,,Lappalanjärvi,60.93022002853995,26.74435628932276,56.32,1261.269,4.57,16.67,60.93982,26.7385
728,728_1,NO,,Møsvatn,59.8193739342511,8.31080161944684,919.0,7909.72,20.0,68.5,,
729,729_1,NO,,Totak,59.680898467344,8.0118310502926,687.0,3726.42,62.0,306.0,,
730,730_1,NO,,Seljordvatn,59.434,8.854,116.0,1661.33,,,,
731,731_1,NO,,Vinjevatn,59.6074413822064,7.8589147269094,466.0,331.97,7.0,35.5,,
732,732_1,NO,,Hjartsjåvatnet,59.6040999996835,8.73600000010497,158.0,106.6,22.0,43.5,,
733,733_1,NO,,Aursunden,62.6682000003347,11.6572000001038,691.0,4640.18,13.0,60.0,,
734,734_1,NO,,Mjøsa,60.6514288512079,11.1016682030016,123.0,36928.03,150.0,453.0,,
735,735_1,NO,,Storsjøen,61.5705999996952,11.2125000005292,252.0,4809.58,138.0,309.0,,
736,736_1,NO,,Atnsjøen,61.8849812368093,10.146879433951,701.0,500.51,35.0,80.0,,
737,737_1,NO,,Vinstre,61.3212677005389,8.86816522033938,1032.0,2784.04,,37.0,,
738,738_1,NO,,Bygdin,61.3234000004583,8.75720000125879,1058.0,4015.99,,200.0,,
739,739_1,NO,,Gjende,61.4929499996025,8.69588000049894,985.0,1577.69,66.0,149.0,,
740,740_1,NO,,Breiddalsvatnet,62.0082141589325,7.62893843982195,900.0,689.93,,45.3,,
741,741_1,NO,,Osensjøen,61.246,11.739,437.0,4363.51,,117.0,,
742,742_1,NO,,Lomnessjøen,61.7504000000595,11.1968999993761,255.0,366.87,10.0,26.0,,
743,743_1,NO,,Savalen,62.2464010763729,10.4725541065686,708.0,1529.13,,,,
744,744_1,NO,,Gålåvatnet,61.4999707091818,9.76623328932738,778.0,303.98,,,,
745,745_1,NO,,Olstappen,61.5062000000297,9.40020000018274,668.0,320.0,,38.0,,
746,746_1,NO,,Nedre Heimdalsvatnet,61.4231990738422,8.95586128911949,1052.0,722.21,,,,
747,747_1,NO,,Øvre Heimdalsvatnet,61.418,8.893,1089.0,77.44,,13.0,,
748,748_1,NO,,Veslevatnet,61.416,9.273,998.0,422.0,,,,
749,749_1,NO,,Aursjoen,61.9346079096257,8.32616358603352,1098.0,737.83,7.0,24.1,,
750,750_1,NO,,Rauddalsvatnet,61.9104963443702,7.7960186768117,913.0,749.77,,,,
751,751_1,NO,,Marsjøen,62.3433797939199,10.0489598414504,1064.0,267.76,,,,
752,752_1,NO,,Elgsjø,62.361,9.798,1132.0,238.0,,,,
753,753_1,NO,,Narsjøen,62.3543999997789,11.4826000001629,737.0,193.83,,,,
754,754_1,NO,,Tesse,61.8134726240944,8.94024505904366,854.0,1284.26,,68.0,,
755,755_1,NO,,Møkeren,60.1629200003441,12.3871199991678,176.0,1277.44,,44.0,,
756,756_1,NO,,Varaldsjøen,60.1404499996514,12.4261900001827,210.0,650.21,,61.1,,
757,757_1,NO,,Søndre Øyersjøen,60.2097573422853,12.4483235376175,270.0,204.29,8.0,40.5,,
758,758_1,NO,,Rømsjøen,59.6785083941025,11.8273697005512,138.0,1365.71,,,,
759,759_1,NO,,Fønnebøfjorden,60.2562386430463,8.91067660603588,460.0,74.76,9.0,27.0,,
760,760_1,NO,,Fustvatnet,65.9044999996365,13.382200000337,38.0,1071.15,,,,
761,761_1,NO,,Røssvatn,65.858,13.794,384.0,21804.89,66.0,231.0,,
762,762_1,NO,,Vangsmjøse,61.1491878381955,8.51887041416403,466.0,1852.75,68.0,154.0,,
763,763_1,NO,,Krøderen,60.1573002524969,9.71870009678979,133.0,4390.6,32.0,130.0,,
764,764_1,NO,,Øyangen,61.2240986434031,8.87803599106248,677.0,668.31,,73.0,,
765,765_1,NO,,Vasetvatnet,60.9967171203548,8.96127077738723,796.0,103.57,,,,
766,766_1,NO,,Midtre Syndin,61.0621605115108,8.76952590059314,937.0,273.099999999999,,,,
767,767_1,NO,,Volbufjorden,61.0869861938142,9.10851119784723,434.0,393.59,26.0,65.0,,
768,768_1,NO,,Rødungen,60.6981099508371,8.2568560073898,1022.0,503.9,,,,
769,769_1,NO,,Bergsjøen,60.7091568253004,8.27758109119021,1082.0,168.16,,,,
770,770_1,NO,,Kringsvatnet,63.804,10.227,87.0,41.0,,,,
771,771_1,NO,,Namsvatnet,64.9966,13.5848,446.0,3953.5,28.0,84.0,,
772,772_1,NO,,Fjergen,63.434385615706,11.9103658438949,514.0,1634.26,10.0,26.9,,
773,773_1,NO,,Funnsjøen,63.4795504411366,11.7879727403744,442.0,799.17,,,,
774,774_1,NO,,Vassvatnet,66.397,13.176,108.0,81.0,,,,
775,775_1,NO,,Vatnvatnet,67.32,14.75,4.0,477.16,20.0,64.25,,
776,776_1,NO,,Lustadvatnet,64.0004123231117,12.0939826046118,277.0,711.57,,,,
777,777_1,NO,,Rovatnet,63.2639618912209,9.03087978867797,13.0,774.05,,,,
778,778_1,NO,,Søvatnet,63.2224000004049,9.37600000039925,280.0,517.3,19.0,67.0,,
779,779_1,NO,,Saksvatnet,64.919,13.482,462.0,169.44,,,,
780,780_1,NO,,Vektaren,64.9128799997431,13.5569000005174,446.0,879.55,18.0,62.0,,
781,781_1,NO,,Murusjøen,64.4617732004474,14.101515187112,312.0,718.61,,,,
782,782_1,NO,,Limingen,64.769499999632,13.61989999989,418.0,9327.11,87.0,192.0,,
783,783_1,NO,,Lenglingen,64.2248999996494,13.8005000001179,354.0,1698.46,,,,
784,784_1,NO,,Eptevatnet,58.2367681261512,7.29054952956628,232.0,115.85,,,,
785,785_1,NO,,Lygne,58.397,7.221,185.0,771.44,,99.7,,
786,786_1,NO,,Isteren,61.9101906890653,11.7803258013339,647.0,2902.6,,20.0,,
787,787_1,NO,,Femunden,62.0522747975683,11.8726031392641,662.0,20383.65,,150.0,,
788,788_1,NO,,Vassbygdevatnet,60.8709000002213,7.27080000212116,55.0,184.97,42.0,65.0,,
789,789_1,NO,,Tyin,61.2748580342548,8.1412682390404,1084.0,3320.83,,81.0,,
790,790_1,NO,,Veitastrondavatnet,61.3381000004762,7.09190000262778,171.0,1755.78,69.0,151.0,,
791,791_1,NO,,Røyrvikvatnet,61.2113238213256,5.75779015094249,336.0,97.45,,,,
792,792_1,NO,,Hestadfjorden,61.3302000000519,5.92590000767227,146.0,323.77,26.0,63.0,,
793,793_1,NO,,Sandvinvatnet,60.0271000006498,6.55770000397713,87.0,437.3,,120.0,,
794,794_1,NO,,Jølstravatnet,61.5070000000789,6.16610000668147,207.0,3928.99,88.0,233.0,,
795,795_1,NO,,Lovatnet,61.8525000002884,6.89650000211159,52.0,1052.77,73.0,138.0,,
796,796_1,NO,,Hornindalsvatnet,61.9396119997869,6.36932300405443,53.0,5077.96,237.0,514.0,,
797,797_1,NO,,Ákšovuonjávri,69.8967000002955,21.362299998849,9.0,568.0,,58.0,,
798,798_1,NO,,Nysætervatnet,62.3408903494034,6.78001014096648,334.0,236.23,,,,
799,799_1,NO,,Vangsvatnet,60.6200634818026,6.39221752853258,44.0,765.0,32.0,60.0,,
800,800_1,NO,,Gjevillvatnet,62.7015613561103,9.31742610411074,661.0,2117.88,40.0,104.5,,
801,801_1,NO,,Skoaberjávri,68.62,17.252,101.0,856.92,,,,
